{
  "metric": "max_15min",
  "period": "30d",
  "unit": "mm/15min",
  "generated_at": "2025-09-30T17:20:54.941Z",
  "rankings": [
    {
      "rank": 1,
      "station": "560557",
      "stationName": "Sale Depot (560557)",
      "region": "England",
      "county": "Cheshire",
      "location": {
        "lat": 53.431001,
        "long": -2.352893
      },
      "value": 13.2
    },
    {
      "rank": 2,
      "station": "49162",
      "stationName": "St Columb (49162)",
      "region": "England",
      "county": "Cornwall",
      "location": {
        "lat": 50.438007,
        "long": -4.948114
      },
      "value": 12.3
    },
    {
      "rank": 3,
      "station": "3307",
      "stationName": "Hollinsclough (3307)",
      "region": "England",
      "county": "Derbyshire",
      "location": {
        "lat": 53.196879,
        "long": -1.901908
      },
      "value": 12
    },
    {
      "rank": 4,
      "station": "3173",
      "stationName": "Kingsley (3173)",
      "region": "England",
      "county": "Derbyshire",
      "location": {
        "lat": 53.017139,
        "long": -1.981319
      },
      "value": 11
    },
    {
      "rank": 5,
      "station": "3110",
      "stationName": "Tittesworth (3110)",
      "region": "England",
      "county": "Cheshire",
      "location": {
        "lat": 53.122311,
        "long": -2.011159
      },
      "value": 9.8
    },
    {
      "rank": 6,
      "station": "554472",
      "stationName": "Hug Bridge (554472)",
      "region": "England",
      "county": "Cheshire",
      "location": {
        "lat": 53.169907,
        "long": -2.103919
      },
      "value": 9.4
    },
    {
      "rank": 7,
      "station": "562656",
      "stationName": "Ringley (562656)",
      "region": "England",
      "county": "Lancashire",
      "location": {
        "lat": 53.539768,
        "long": -2.35078
      },
      "value": 9
    },
    {
      "rank": 8,
      "station": "E14930",
      "stationName": "Chale (E14930)",
      "region": "England",
      "county": "Isle of Wight",
      "location": {
        "lat": 50.623497,
        "long": -1.307947
      },
      "value": 9
    },
    {
      "rank": 9,
      "station": "49147",
      "stationName": "Newquay (49147)",
      "region": "England",
      "county": "Cornwall",
      "location": {
        "lat": 50.391624,
        "long": -5.071876
      },
      "value": 8.4
    },
    {
      "rank": 10,
      "station": "558016",
      "stationName": "Cat And Fiddle (558016)",
      "region": "England",
      "county": "Derbyshire",
      "location": {
        "lat": 53.24456,
        "long": -1.997705
      },
      "value": 7.3
    },
    {
      "rank": 11,
      "station": "3347",
      "stationName": "Loggerheads (3347)",
      "region": "England",
      "county": "Staffordshire",
      "location": {
        "lat": 52.905076,
        "long": -2.37685
      },
      "value": 7.2
    },
    {
      "rank": 12,
      "station": "569723",
      "stationName": "Rivington (569723)",
      "region": "England",
      "county": "Lancashire",
      "location": {
        "lat": 53.604601,
        "long": -2.556847
      },
      "value": 6.9
    },
    {
      "rank": 13,
      "station": "575935",
      "stationName": "Sunnyhurst (575935)",
      "region": "England",
      "county": "Lancashire",
      "location": {
        "lat": 53.694788,
        "long": -2.486856
      },
      "value": 6.9
    },
    {
      "rank": 14,
      "station": "1712",
      "stationName": "Cosford Ww (1712)",
      "region": "England",
      "county": "Staffordshire",
      "location": {
        "lat": 52.639137,
        "long": -2.325793
      },
      "value": 6.8
    },
    {
      "rank": 15,
      "station": "50101",
      "stationName": "Parkham (50101)",
      "region": "England",
      "county": "Devon",
      "location": {
        "lat": 50.975364,
        "long": -4.291091
      },
      "value": 6.8
    },
    {
      "rank": 16,
      "station": "47160",
      "stationName": "Kilkhampton (47160)",
      "region": "England",
      "county": "Devon",
      "location": {
        "lat": 50.877791,
        "long": -4.488167
      },
      "value": 6.5
    },
    {
      "rank": 17,
      "station": "1121",
      "stationName": "Monkmoor (1121)",
      "region": "England",
      "county": "Unknown",
      "location": {
        "lat": 52.718322,
        "long": -2.717219
      },
      "value": 6.4
    },
    {
      "rank": 18,
      "station": "242534TP",
      "stationName": "Ware,broadmeads (242534TP)",
      "region": "England",
      "county": "Hertfordshire",
      "location": {
        "lat": 51.807828,
        "long": -0.03963
      },
      "value": 6.4
    },
    {
      "rank": 19,
      "station": "E7135",
      "stationName": "Keelby (E7135)",
      "region": "England",
      "county": "Lincolnshire",
      "location": {
        "lat": 53.572235,
        "long": -0.236854
      },
      "value": 6.2
    },
    {
      "rank": 20,
      "station": "558975",
      "stationName": "Padfield Reservoir (558975)",
      "region": "England",
      "county": "Derbyshire",
      "location": {
        "lat": 53.463871,
        "long": -1.947989
      },
      "value": 6.1
    },
    {
      "rank": 21,
      "station": "582191",
      "stationName": "Ingleton High Leys (582191)",
      "region": "England",
      "county": "Cumbria",
      "location": {
        "lat": 54.144383,
        "long": -2.433946
      },
      "value": 6.1
    },
    {
      "rank": 22,
      "station": "1793",
      "stationName": "Long Mynd (1793)",
      "region": "England",
      "county": "Powys",
      "location": {
        "lat": 52.518531,
        "long": -2.881966
      },
      "value": 6
    },
    {
      "rank": 23,
      "station": "564595",
      "stationName": "Langley Bottom (564595)",
      "region": "England",
      "county": "Cheshire",
      "location": {
        "lat": 53.240041,
        "long": -2.077118
      },
      "value": 6
    },
    {
      "rank": 24,
      "station": "552376",
      "stationName": "Audlem Mere Farm (552376)",
      "region": "England",
      "county": "Staffordshire",
      "location": {
        "lat": 52.965913,
        "long": -2.459268
      },
      "value": 5.8
    },
    {
      "rank": 25,
      "station": "E4080",
      "stationName": "Chartham (E4080)",
      "region": "England",
      "county": "Kent",
      "location": {
        "lat": 51.258867,
        "long": 1.033447
      },
      "value": 5.8
    },
    {
      "rank": 26,
      "station": "562992",
      "stationName": "Heaton Park (562992)",
      "region": "England",
      "county": "Lancashire",
      "location": {
        "lat": 53.535499,
        "long": -2.263235
      },
      "value": 5.7
    },
    {
      "rank": 27,
      "station": "571479",
      "stationName": "Far Gearstone (571479)",
      "region": "England",
      "county": "Cumbria",
      "location": {
        "lat": 54.217501,
        "long": -2.3335
      },
      "value": 5.6
    },
    {
      "rank": 28,
      "station": "558844",
      "stationName": "Woodhead (558844)",
      "region": "England",
      "county": "Derbyshire",
      "location": {
        "lat": 53.49079,
        "long": -1.883147
      },
      "value": 5.5
    },
    {
      "rank": 29,
      "station": "1771",
      "stationName": "Prees (1771)",
      "region": "England",
      "county": "Unknown",
      "location": {
        "lat": 52.911156,
        "long": -2.637129
      },
      "value": 5.4
    },
    {
      "rank": 30,
      "station": "3570",
      "stationName": "Cauldon Low (3570)",
      "region": "England",
      "county": "Derbyshire",
      "location": {
        "lat": 53.029694,
        "long": -1.914215
      },
      "value": 5.4
    },
    {
      "rank": 31,
      "station": "E5722",
      "stationName": "Metoff Cranwell (E5722)",
      "region": "England",
      "county": "Lincolnshire",
      "location": {
        "lat": 53.031102,
        "long": -0.503575
      },
      "value": 5.4
    },
    {
      "rank": 32,
      "station": "3779",
      "stationName": "Keadby (3779)",
      "region": "England",
      "county": "Lincolnshire",
      "location": {
        "lat": 53.591168,
        "long": -0.7392
      },
      "value": 5.2
    },
    {
      "rank": 33,
      "station": "45186",
      "stationName": "Woodbury (45186)",
      "region": "England",
      "county": "Devon",
      "location": {
        "lat": 50.67998,
        "long": -3.408962
      },
      "value": 5.1
    },
    {
      "rank": 34,
      "station": "076204",
      "stationName": "Farnley Hall (076204)",
      "region": "England",
      "county": "Lancashire",
      "location": {
        "lat": 53.787777,
        "long": -1.627332
      },
      "value": 5
    },
    {
      "rank": 35,
      "station": "3441",
      "stationName": "Ogston (3441)",
      "region": "England",
      "county": "Derbyshire",
      "location": {
        "lat": 53.134445,
        "long": -1.432716
      },
      "value": 5
    },
    {
      "rank": 36,
      "station": "3861",
      "stationName": "Nutwell Wtw (3861)",
      "region": "England",
      "county": "Yorkshire",
      "location": {
        "lat": 53.521199,
        "long": -1.045964
      },
      "value": 5
    },
    {
      "rank": 37,
      "station": "E5721",
      "stationName": "Metoff Waddington (E5721)",
      "region": "England",
      "county": "Lincolnshire",
      "location": {
        "lat": 53.175194,
        "long": -0.524002
      },
      "value": 5
    },
    {
      "rank": 38,
      "station": "3346",
      "stationName": "Cresswell (3346)",
      "region": "England",
      "county": "Staffordshire",
      "location": {
        "lat": 52.95331,
        "long": -2.040883
      },
      "value": 4.8
    },
    {
      "rank": 39,
      "station": "49108",
      "stationName": "Trefrida (49108)",
      "region": "England",
      "county": "Cornwall",
      "location": {
        "lat": 50.733448,
        "long": -4.549952
      },
      "value": 4.8
    },
    {
      "rank": 40,
      "station": "561299",
      "stationName": "Blackstone Edge (561299)",
      "region": "England",
      "county": "Lancashire",
      "location": {
        "lat": 53.65712,
        "long": -2.049131
      },
      "value": 4.8
    },
    {
      "rank": 41,
      "station": "036704",
      "stationName": "Robin Hoods Bay (036704)",
      "region": "England",
      "county": "Yorkshire",
      "location": {
        "lat": 54.434842,
        "long": -0.550006
      },
      "value": 4.7
    },
    {
      "rank": 42,
      "station": "077836",
      "stationName": "Ringstone Reservoir (077836)",
      "region": "England",
      "county": "Lancashire",
      "location": {
        "lat": 53.657107,
        "long": -1.925056
      },
      "value": 4.6
    },
    {
      "rank": 43,
      "station": "564160",
      "stationName": "Richard Fairclough House (564160)",
      "region": "England",
      "county": "Cheshire",
      "location": {
        "lat": 53.381621,
        "long": -2.570469
      },
      "value": 4.6
    },
    {
      "rank": 44,
      "station": "575335",
      "stationName": "Mearley Hall (575335)",
      "region": "England",
      "county": "Lancashire",
      "location": {
        "lat": 53.862447,
        "long": -2.348914
      },
      "value": 4.5
    },
    {
      "rank": 45,
      "station": "082732",
      "stationName": "Ringing Low (082732)",
      "region": "England",
      "county": "Derbyshire",
      "location": {
        "lat": 53.352459,
        "long": -1.545506
      },
      "value": 4.4
    },
    {
      "rank": 46,
      "station": "3860",
      "stationName": "Maltby Wrw (3860)",
      "region": "England",
      "county": "Derbyshire",
      "location": {
        "lat": 53.407215,
        "long": -1.191422
      },
      "value": 4.4
    },
    {
      "rank": 47,
      "station": "48148",
      "stationName": "St Erth (48148)",
      "region": "England",
      "county": "Cornwall",
      "location": {
        "lat": 50.171774,
        "long": -5.437334
      },
      "value": 4.4
    },
    {
      "rank": 48,
      "station": "591419",
      "stationName": "Calder Hall (591419)",
      "region": "England",
      "county": "Cumbria",
      "location": {
        "lat": 54.427181,
        "long": -3.488178
      },
      "value": 4.4
    },
    {
      "rank": 49,
      "station": "E7130",
      "stationName": "Cadney (E7130)",
      "region": "England",
      "county": "Lincolnshire",
      "location": {
        "lat": 53.534467,
        "long": -0.499466
      },
      "value": 4.4
    },
    {
      "rank": 50,
      "station": "032822",
      "stationName": "Harpington Hill (032822)",
      "region": "England",
      "county": "Durham",
      "location": {
        "lat": 54.633845,
        "long": -1.480219
      },
      "value": 4.2
    },
    {
      "rank": 51,
      "station": "080282",
      "stationName": "Wakefield (080282)",
      "region": "England",
      "county": "Yorkshire",
      "location": {
        "lat": 53.679365,
        "long": -1.478411
      },
      "value": 4.2
    },
    {
      "rank": 52,
      "station": "3572",
      "stationName": "Chapel Reservoir (3572)",
      "region": "England",
      "county": "Derbyshire",
      "location": {
        "lat": 53.311933,
        "long": -1.898644
      },
      "value": 4.2
    },
    {
      "rank": 53,
      "station": "49104",
      "stationName": "Colliford (49104)",
      "region": "England",
      "county": "Cornwall",
      "location": {
        "lat": 50.509966,
        "long": -4.568918
      },
      "value": 4.2
    },
    {
      "rank": 54,
      "station": "575092",
      "stationName": "Mitchells House Res (575092)",
      "region": "England",
      "county": "Lancashire",
      "location": {
        "lat": 53.742978,
        "long": -2.323663
      },
      "value": 4.2
    },
    {
      "rank": 55,
      "station": "606299",
      "stationName": "Willowholme (606299)",
      "region": "England",
      "county": "Cumbria",
      "location": {
        "lat": 54.899013,
        "long": -2.953493
      },
      "value": 4.2
    },
    {
      "rank": 56,
      "station": "48102",
      "stationName": "Rosewarne (48102)",
      "region": "England",
      "county": "Cornwall",
      "location": {
        "lat": 50.223298,
        "long": -5.305022
      },
      "value": 4.1
    },
    {
      "rank": 57,
      "station": "569848",
      "stationName": "Worthington (569848)",
      "region": "England",
      "county": "Lancashire",
      "location": {
        "lat": 53.58714,
        "long": -2.633659
      },
      "value": 4.1
    },
    {
      "rank": 58,
      "station": "078772",
      "stationName": "Brownhill Reservoir (078772)",
      "region": "England",
      "county": "Lancashire",
      "location": {
        "lat": 53.552738,
        "long": -1.824111
      },
      "value": 4
    },
    {
      "rank": 59,
      "station": "1332",
      "stationName": "Walkmills (1332)",
      "region": "England",
      "county": "Unknown",
      "location": {
        "lat": 52.589321,
        "long": -2.78744
      },
      "value": 4
    },
    {
      "rank": 60,
      "station": "3816",
      "stationName": "Sutton In Ashfield (3816)",
      "region": "England",
      "county": "Derbyshire",
      "location": {
        "lat": 53.130665,
        "long": -1.23847
      },
      "value": 4
    },
    {
      "rank": 61,
      "station": "558491",
      "stationName": "Hayfield New Mills (558491)",
      "region": "England",
      "county": "Derbyshire",
      "location": {
        "lat": 53.38925,
        "long": -1.919511
      },
      "value": 4
    },
    {
      "rank": 62,
      "station": "564154",
      "stationName": "Bedford (564154)",
      "region": "England",
      "county": "Cheshire",
      "location": {
        "lat": 53.497891,
        "long": -2.499671
      },
      "value": 4
    },
    {
      "rank": 63,
      "station": "E4850",
      "stationName": "Broadstairs (E4850)",
      "region": "England",
      "county": "Kent",
      "location": {
        "lat": 51.359322,
        "long": 1.403568
      },
      "value": 4
    },
    {
      "rank": 64,
      "station": "035488",
      "stationName": "Westerdale (035488)",
      "region": "England",
      "county": "Yorkshire",
      "location": {
        "lat": 54.438313,
        "long": -0.976984
      },
      "value": 3.9
    },
    {
      "rank": 65,
      "station": "075233",
      "stationName": "Thornton Moor Reservoir (075233)",
      "region": "England",
      "county": "Lancashire",
      "location": {
        "lat": 53.79732,
        "long": -1.924807
      },
      "value": 3.9
    },
    {
      "rank": 66,
      "station": "48180",
      "stationName": "St Dennis (48180)",
      "region": "England",
      "county": "Cornwall",
      "location": {
        "lat": 50.382625,
        "long": -4.896844
      },
      "value": 3.9
    },
    {
      "rank": 67,
      "station": "585512",
      "stationName": "Watchgate (585512)",
      "region": "England",
      "county": "Cumbria",
      "location": {
        "lat": 54.37577,
        "long": -2.72272
      },
      "value": 3.9
    },
    {
      "rank": 68,
      "station": "000008",
      "stationName": "Harley (000008)",
      "region": "England",
      "county": "Derbyshire",
      "location": {
        "lat": 53.480556,
        "long": -1.441674
      },
      "value": 3.8
    },
    {
      "rank": 69,
      "station": "000028",
      "stationName": "Langsett Reservoir (000028)",
      "region": "England",
      "county": "Lancashire",
      "location": {
        "lat": 53.500289,
        "long": -1.673575
      },
      "value": 3.8
    },
    {
      "rank": 70,
      "station": "062046",
      "stationName": "Grimwith Reservoir (062046)",
      "region": "England",
      "county": "Lancashire",
      "location": {
        "lat": 54.071438,
        "long": -1.913617
      },
      "value": 3.8
    },
    {
      "rank": 71,
      "station": "078530",
      "stationName": "Marsden Butterley Reservoir (078530)",
      "region": "England",
      "county": "Lancashire",
      "location": {
        "lat": 53.592394,
        "long": -1.929702
      },
      "value": 3.8
    },
    {
      "rank": 72,
      "station": "078922",
      "stationName": "Honley Ludhill Farm (078922)",
      "region": "England",
      "county": "Lancashire",
      "location": {
        "lat": 53.60567,
        "long": -1.766463
      },
      "value": 3.8
    },
    {
      "rank": 73,
      "station": "570099",
      "stationName": "Billinge Hill (570099)",
      "region": "England",
      "county": "Lancashire",
      "location": {
        "lat": 53.511139,
        "long": -2.721493
      },
      "value": 3.8
    },
    {
      "rank": 74,
      "station": "592464",
      "stationName": "Honister (592464)",
      "region": "England",
      "county": "Cumbria",
      "location": {
        "lat": 54.511299,
        "long": -3.197753
      },
      "value": 3.8
    },
    {
      "rank": 75,
      "station": "50187",
      "stationName": "Bradworthy Common (50187)",
      "region": "England",
      "county": "Devon",
      "location": {
        "lat": 50.909721,
        "long": -4.380331
      },
      "value": 3.7
    },
    {
      "rank": 76,
      "station": "575384",
      "stationName": "Kebb Farm / Great Harwood (575384)",
      "region": "England",
      "county": "Lancashire",
      "location": {
        "lat": 53.790306,
        "long": -2.422692
      },
      "value": 3.7
    },
    {
      "rank": 77,
      "station": "074108",
      "stationName": "Lothersdale Proctor Heights (074108)",
      "region": "England",
      "county": "Lancashire",
      "location": {
        "lat": 53.911448,
        "long": -2.098144
      },
      "value": 3.6
    },
    {
      "rank": 78,
      "station": "3588",
      "stationName": "Meynell Langley (3588)",
      "region": "England",
      "county": "Derbyshire",
      "location": {
        "lat": 52.958861,
        "long": -1.577925
      },
      "value": 3.6
    },
    {
      "rank": 79,
      "station": "47101",
      "stationName": "Holsworthy (47101)",
      "region": "England",
      "county": "Devon",
      "location": {
        "lat": 50.804076,
        "long": -4.356504
      },
      "value": 3.6
    },
    {
      "rank": 80,
      "station": "48155",
      "stationName": "St Teath (48155)",
      "region": "England",
      "county": "Cornwall",
      "location": {
        "lat": 50.593242,
        "long": -4.743017
      },
      "value": 3.6
    },
    {
      "rank": 81,
      "station": "49149",
      "stationName": "Boscastle (49149)",
      "region": "England",
      "county": "Cornwall",
      "location": {
        "lat": 50.679797,
        "long": -4.695684
      },
      "value": 3.6
    },
    {
      "rank": 82,
      "station": "49172",
      "stationName": "Port Isaac (49172)",
      "region": "England",
      "county": "Cornwall",
      "location": {
        "lat": 50.589351,
        "long": -4.830395
      },
      "value": 3.6
    },
    {
      "rank": 83,
      "station": "551440",
      "stationName": "Folly Gates (551440)",
      "region": "England",
      "county": "Cheshire",
      "location": {
        "lat": 53.276556,
        "long": -2.854006
      },
      "value": 3.6
    },
    {
      "rank": 84,
      "station": "555207",
      "stationName": "Mow Cop (555207)",
      "region": "England",
      "county": "Cheshire",
      "location": {
        "lat": 53.114913,
        "long": -2.221812
      },
      "value": 3.6
    },
    {
      "rank": 85,
      "station": "567866",
      "stationName": "Fazakerley (567866)",
      "region": "England",
      "county": "Cheshire",
      "location": {
        "lat": 53.460365,
        "long": -2.916431
      },
      "value": 3.6
    },
    {
      "rank": 86,
      "station": "570231",
      "stationName": "Hoscar (570231)",
      "region": "England",
      "county": "Lancashire",
      "location": {
        "lat": 53.596101,
        "long": -2.789423
      },
      "value": 3.6
    },
    {
      "rank": 87,
      "station": "586056",
      "stationName": "Levens Bridge End (586056)",
      "region": "England",
      "county": "Cumbria",
      "location": {
        "lat": 54.262864,
        "long": -2.811323
      },
      "value": 3.6
    },
    {
      "rank": 88,
      "station": "592448",
      "stationName": "Seathwaite Farm (592448)",
      "region": "England",
      "county": "Cumbria",
      "location": {
        "lat": 54.498872,
        "long": -3.181948
      },
      "value": 3.6
    },
    {
      "rank": 89,
      "station": "075497",
      "stationName": "Bradford Chellow Heights (075497)",
      "region": "England",
      "county": "Lancashire",
      "location": {
        "lat": 53.815189,
        "long": -1.823015
      },
      "value": 3.5
    },
    {
      "rank": 90,
      "station": "082673",
      "stationName": "Dore (082673)",
      "region": "England",
      "county": "Derbyshire",
      "location": {
        "lat": 53.324572,
        "long": -1.539797
      },
      "value": 3.5
    },
    {
      "rank": 91,
      "station": "570788",
      "stationName": "Common Bank (570788)",
      "region": "England",
      "county": "Lancashire",
      "location": {
        "lat": 53.653543,
        "long": -2.654324
      },
      "value": 3.5
    },
    {
      "rank": 92,
      "station": "574718",
      "stationName": "Colne Swinden (574718)",
      "region": "England",
      "county": "Lancashire",
      "location": {
        "lat": 53.851109,
        "long": -2.196809
      },
      "value": 3.5
    },
    {
      "rank": 93,
      "station": "05973",
      "stationName": "York Acomb Landing (05973)",
      "region": "England",
      "county": "Yorkshire",
      "location": {
        "lat": 53.966652,
        "long": -1.115089
      },
      "value": 3.4
    },
    {
      "rank": 94,
      "station": "083280",
      "stationName": "Wingerworth (083280)",
      "region": "England",
      "county": "Derbyshire",
      "location": {
        "lat": 53.194682,
        "long": -1.434915
      },
      "value": 3.4
    },
    {
      "rank": 95,
      "station": "0925SE",
      "stationName": "Deal (0925SE)",
      "region": "England",
      "county": "Kent",
      "location": {
        "lat": 51.207877,
        "long": 1.383789
      },
      "value": 3.4
    },
    {
      "rank": 96,
      "station": "1552",
      "stationName": "Bratch (1552)",
      "region": "England",
      "county": "Staffordshire",
      "location": {
        "lat": 52.541438,
        "long": -2.193841
      },
      "value": 3.4
    },
    {
      "rank": 97,
      "station": "3404",
      "stationName": "Barbrook (3404)",
      "region": "England",
      "county": "Derbyshire",
      "location": {
        "lat": 53.287863,
        "long": -1.579192
      },
      "value": 3.4
    },
    {
      "rank": 98,
      "station": "3616",
      "stationName": "Ashford Hall (3616)",
      "region": "England",
      "county": "Derbyshire",
      "location": {
        "lat": 53.22531,
        "long": -1.701132
      },
      "value": 3.4
    },
    {
      "rank": 99,
      "station": "48171",
      "stationName": "Goonhilly (48171)",
      "region": "England",
      "county": "Cornwall",
      "location": {
        "lat": 50.035296,
        "long": -5.208282
      },
      "value": 3.4
    },
    {
      "rank": 100,
      "station": "50105",
      "stationName": "East Okement (50105)",
      "region": "England",
      "county": "Devon",
      "location": {
        "lat": 50.703195,
        "long": -3.977548
      },
      "value": 3.4
    }
  ]
}