{
  "metric": "rainy_days",
  "period": "24h",
  "unit": "days",
  "generated_at": "2025-09-30T23:20:38.732Z",
  "rankings": [
    {
      "rank": 1,
      "station": "013336",
      "stationName": "Hartside (013336)",
      "region": "England",
      "county": "Cumbria",
      "location": {
        "lat": 54.774946,
        "long": -2.516845
      },
      "value": 1
    },
    {
      "rank": 2,
      "station": "013878",
      "stationName": "Knarsdale (013878)",
      "region": "England",
      "county": "Cumbria",
      "location": {
        "lat": 54.871077,
        "long": -2.52275
      },
      "value": 1
    },
    {
      "rank": 3,
      "station": "040492",
      "stationName": "Winestead (040492)",
      "region": "England",
      "county": "Lincolnshire",
      "location": {
        "lat": 53.6913,
        "long": -0.031959
      },
      "value": 1
    },
    {
      "rank": 4,
      "station": "1140",
      "stationName": "Dowdeswell (1140)",
      "region": "England",
      "county": "Gloucestershire",
      "location": {
        "lat": 51.875411,
        "long": -2.019556
      },
      "value": 1
    },
    {
      "rank": 5,
      "station": "1332",
      "stationName": "Walkmills (1332)",
      "region": "England",
      "county": "Unknown",
      "location": {
        "lat": 52.589321,
        "long": -2.78744
      },
      "value": 1
    },
    {
      "rank": 6,
      "station": "238777TP",
      "stationName": "Moreton (238777TP)",
      "region": "England",
      "county": "Essex",
      "location": {
        "lat": 51.736595,
        "long": 0.223782
      },
      "value": 1
    },
    {
      "rank": 7,
      "station": "238944TP",
      "stationName": "Stanford Rivers (238944TP)",
      "region": "England",
      "county": "Essex",
      "location": {
        "lat": 51.677024,
        "long": 0.235326
      },
      "value": 1
    },
    {
      "rank": 8,
      "station": "242819TP",
      "stationName": "Widford (242819TP)",
      "region": "England",
      "county": "Essex",
      "location": {
        "lat": 51.827809,
        "long": 0.054118
      },
      "value": 1
    },
    {
      "rank": 9,
      "station": "261602TP",
      "stationName": "Dancers End (261602TP)",
      "region": "England",
      "county": "Buckinghamshire",
      "location": {
        "lat": 51.772802,
        "long": -0.689041
      },
      "value": 1
    },
    {
      "rank": 10,
      "station": "287141TP",
      "stationName": "Cheam (287141TP)",
      "region": "England",
      "county": "Surrey",
      "location": {
        "lat": 51.362722,
        "long": -0.209526
      },
      "value": 1
    },
    {
      "rank": 11,
      "station": "288092TP",
      "stationName": "Norwood Reservoir (288092TP)",
      "region": "England",
      "county": "Surrey",
      "location": {
        "lat": 51.4214,
        "long": -0.109429
      },
      "value": 1
    },
    {
      "rank": 12,
      "station": "290200TP",
      "stationName": "Sundridge (290200TP)",
      "region": "England",
      "county": "Kent",
      "location": {
        "lat": 51.280521,
        "long": 0.134285
      },
      "value": 1
    },
    {
      "rank": 13,
      "station": "3766",
      "stationName": "Nottingham Watnall (3766)",
      "region": "England",
      "county": "Derbyshire",
      "location": {
        "lat": 53.005795,
        "long": -1.251101
      },
      "value": 1
    },
    {
      "rank": 14,
      "station": "47101",
      "stationName": "Holsworthy (47101)",
      "region": "England",
      "county": "Devon",
      "location": {
        "lat": 50.804076,
        "long": -4.356504
      },
      "value": 1
    },
    {
      "rank": 15,
      "station": "47102",
      "stationName": "Crowford Bridge (47102)",
      "region": "England",
      "county": "Cornwall",
      "location": {
        "lat": 50.766684,
        "long": -4.425535
      },
      "value": 1
    },
    {
      "rank": 16,
      "station": "47161",
      "stationName": "Gunnislake (47161)",
      "region": "England",
      "county": "Cornwall",
      "location": {
        "lat": 50.516447,
        "long": -4.209541
      },
      "value": 1
    },
    {
      "rank": 17,
      "station": "48100",
      "stationName": "Trengwainton (48100)",
      "region": "England",
      "county": "Cornwall",
      "location": {
        "lat": 50.127328,
        "long": -5.568494
      },
      "value": 1
    },
    {
      "rank": 18,
      "station": "48102",
      "stationName": "Rosewarne (48102)",
      "region": "England",
      "county": "Cornwall",
      "location": {
        "lat": 50.223298,
        "long": -5.305022
      },
      "value": 1
    },
    {
      "rank": 19,
      "station": "48170",
      "stationName": "Wendron (48170)",
      "region": "England",
      "county": "Cornwall",
      "location": {
        "lat": 50.131262,
        "long": -5.251088
      },
      "value": 1
    },
    {
      "rank": 20,
      "station": "49105",
      "stationName": "De Lank (49105)",
      "region": "England",
      "county": "Cornwall",
      "location": {
        "lat": 50.558792,
        "long": -4.637937
      },
      "value": 1
    },
    {
      "rank": 21,
      "station": "49151",
      "stationName": "St Cleer (49151)",
      "region": "England",
      "county": "Cornwall",
      "location": {
        "lat": 50.480775,
        "long": -4.463019
      },
      "value": 1
    },
    {
      "rank": 22,
      "station": "50199",
      "stationName": "Lapford Bowerthy (50199)",
      "region": "England",
      "county": "Devon",
      "location": {
        "lat": 50.873373,
        "long": -3.798545
      },
      "value": 1
    },
    {
      "rank": 23,
      "station": "52201",
      "stationName": "Priddy (52201)",
      "region": "England",
      "county": "Somerset",
      "location": {
        "lat": 51.270102,
        "long": -2.682969
      },
      "value": 1
    },
    {
      "rank": 24,
      "station": "585122",
      "stationName": "Dubbs Reservoir (585122)",
      "region": "England",
      "county": "Cumbria",
      "location": {
        "lat": 54.406987,
        "long": -2.892739
      },
      "value": 1
    },
    {
      "rank": 25,
      "station": "585160",
      "stationName": "Kentmere Hallowbank (585160)",
      "region": "England",
      "county": "Cumbria",
      "location": {
        "lat": 54.43892,
        "long": -2.825593
      },
      "value": 1
    },
    {
      "rank": 26,
      "station": "585512",
      "stationName": "Watchgate (585512)",
      "region": "England",
      "county": "Cumbria",
      "location": {
        "lat": 54.37577,
        "long": -2.72272
      },
      "value": 1
    },
    {
      "rank": 27,
      "station": "586820",
      "stationName": "Mickledon (586820)",
      "region": "England",
      "county": "Cumbria",
      "location": {
        "lat": 54.444792,
        "long": -3.103284
      },
      "value": 1
    },
    {
      "rank": 28,
      "station": "586898",
      "stationName": "Brathay Hall (586898)",
      "region": "England",
      "county": "Cumbria",
      "location": {
        "lat": 54.420696,
        "long": -2.979342
      },
      "value": 1
    },
    {
      "rank": 29,
      "station": "588006",
      "stationName": "Coniston Coppermines (588006)",
      "region": "England",
      "county": "Cumbria",
      "location": {
        "lat": 54.378286,
        "long": -3.103039
      },
      "value": 1
    },
    {
      "rank": 30,
      "station": "589359",
      "stationName": "Ulpha (589359)",
      "region": "England",
      "county": "Cumbria",
      "location": {
        "lat": 54.342135,
        "long": -3.21744
      },
      "value": 1
    },
    {
      "rank": 31,
      "station": "591642",
      "stationName": "Ennerdale (591642)",
      "region": "England",
      "county": "Cumbria",
      "location": {
        "lat": 54.525099,
        "long": -3.417569
      },
      "value": 1
    },
    {
      "rank": 32,
      "station": "591878",
      "stationName": "Summergrove (591878)",
      "region": "England",
      "county": "Unknown",
      "location": {
        "lat": 54.529816,
        "long": -3.545999
      },
      "value": 1
    },
    {
      "rank": 33,
      "station": "592158",
      "stationName": "Egremont Ivy Hill (592158)",
      "region": "England",
      "county": "Unknown",
      "location": {
        "lat": 54.498215,
        "long": -3.557159
      },
      "value": 1
    },
    {
      "rank": 34,
      "station": "592464",
      "stationName": "Honister (592464)",
      "region": "England",
      "county": "Cumbria",
      "location": {
        "lat": 54.511299,
        "long": -3.197753
      },
      "value": 1
    },
    {
      "rank": 35,
      "station": "592850",
      "stationName": "Dale Head Hall (592850)",
      "region": "England",
      "county": "Cumbria",
      "location": {
        "lat": 54.548496,
        "long": -3.06434
      },
      "value": 1
    },
    {
      "rank": 36,
      "station": "592860",
      "stationName": "Thirlmere St John&#39;s Beck (592860)",
      "region": "England",
      "county": "Cumbria",
      "location": {
        "lat": 54.56648,
        "long": -3.063261
      },
      "value": 1
    },
    {
      "rank": 37,
      "station": "593362",
      "stationName": "Keswick Sewage Treatment Works (593362)",
      "region": "England",
      "county": "Cumbria",
      "location": {
        "lat": 54.614148,
        "long": -3.157414
      },
      "value": 1
    },
    {
      "rank": 38,
      "station": "594202",
      "stationName": "Cornhow (594202)",
      "region": "England",
      "county": "Cumbria",
      "location": {
        "lat": 54.58826,
        "long": -3.316076
      },
      "value": 1
    },
    {
      "rank": 39,
      "station": "595273",
      "stationName": "Quarry Hill (595273)",
      "region": "England",
      "county": "Cumbria",
      "location": {
        "lat": 54.760082,
        "long": -3.214413
      },
      "value": 1
    },
    {
      "rank": 40,
      "station": "600140",
      "stationName": "Brotherswater (600140)",
      "region": "England",
      "county": "Cumbria",
      "location": {
        "lat": 54.500172,
        "long": -2.930285
      },
      "value": 1
    },
    {
      "rank": 41,
      "station": "600295",
      "stationName": "Glenridding Greenside Mines (600295)",
      "region": "England",
      "county": "Cumbria",
      "location": {
        "lat": 54.548278,
        "long": -2.983943
      },
      "value": 1
    },
    {
      "rank": 42,
      "station": "600683",
      "stationName": "High Row (600683)",
      "region": "England",
      "county": "Cumbria",
      "location": {
        "lat": 54.592579,
        "long": -2.950962
      },
      "value": 1
    },
    {
      "rank": 43,
      "station": "601304",
      "stationName": "Burnbanks (601304)",
      "region": "England",
      "county": "Cumbria",
      "location": {
        "lat": 54.536396,
        "long": -2.762648
      },
      "value": 1
    },
    {
      "rank": 44,
      "station": "605324",
      "stationName": "Force Crag Mine (605324)",
      "region": "England",
      "county": "Cumbria",
      "location": {
        "lat": 54.583702,
        "long": -3.237013
      },
      "value": 1
    },
    {
      "rank": 45,
      "station": "606299",
      "stationName": "Willowholme (606299)",
      "region": "England",
      "county": "Cumbria",
      "location": {
        "lat": 54.899013,
        "long": -2.953493
      },
      "value": 1
    },
    {
      "rank": 46,
      "station": "E14930",
      "stationName": "Chale (E14930)",
      "region": "England",
      "county": "Isle of Wight",
      "location": {
        "lat": 50.623497,
        "long": -1.307947
      },
      "value": 1
    },
    {
      "rank": 47,
      "station": "E2331",
      "stationName": "Dingley (E2331)",
      "region": "England",
      "county": "Leicestershire",
      "location": {
        "lat": 52.473204,
        "long": -0.862668
      },
      "value": 1
    },
    {
      "rank": 48,
      "station": "E44111",
      "stationName": "Great Dunmow (E44111)",
      "region": "England",
      "county": "Essex",
      "location": {
        "lat": 51.874052,
        "long": 0.368575
      },
      "value": 1
    },
    {
      "rank": 49,
      "station": "E48676",
      "stationName": "Eye Raine (E48676)",
      "region": "England",
      "county": "Suffolk",
      "location": {
        "lat": 52.307124,
        "long": 1.153055
      },
      "value": 1
    },
    {
      "rank": 50,
      "station": "E5721",
      "stationName": "Metoff Waddington (E5721)",
      "region": "England",
      "county": "Lincolnshire",
      "location": {
        "lat": 53.175194,
        "long": -0.524002
      },
      "value": 1
    },
    {
      "rank": 51,
      "station": "E5722",
      "stationName": "Metoff Cranwell (E5722)",
      "region": "England",
      "county": "Lincolnshire",
      "location": {
        "lat": 53.031102,
        "long": -0.503575
      },
      "value": 1
    },
    {
      "rank": 52,
      "station": "E5724",
      "stationName": "Metoff Wainfleet (E5724)",
      "region": "England",
      "county": "Lincolnshire",
      "location": {
        "lat": 53.088074,
        "long": 0.270439
      },
      "value": 1
    },
    {
      "rank": 53,
      "station": "E5728",
      "stationName": "Metoff Marham (E5728)",
      "region": "England",
      "county": "Norfolk",
      "location": {
        "lat": 52.651369,
        "long": 0.565622
      },
      "value": 1
    },
    {
      "rank": 54,
      "station": "E5732",
      "stationName": "Metoff Wattisham (E5732)",
      "region": "England",
      "county": "Suffolk",
      "location": {
        "lat": 52.124227,
        "long": 0.957474
      },
      "value": 1
    },
    {
      "rank": 55,
      "station": "E5733",
      "stationName": "Metoff Andrewsfield (E5733)",
      "region": "England",
      "county": "Essex",
      "location": {
        "lat": 51.895742,
        "long": 0.451114
      },
      "value": 1
    },
    {
      "rank": 56,
      "station": "E82040",
      "stationName": "Colaton Raleigh Dotton Water Works (E82040)",
      "region": "England",
      "county": "Devon",
      "location": {
        "lat": 50.686641,
        "long": -3.300157
      },
      "value": 1
    },
    {
      "rank": 57,
      "station": "E9660",
      "stationName": "Storrington (E9660)",
      "region": "England",
      "county": "West Sussex",
      "location": {
        "lat": 50.929364,
        "long": -0.469557
      },
      "value": 1
    }
  ]
}