{
  "metric": "max_15min",
  "period": "7d",
  "unit": "mm/15min",
  "generated_at": "2025-09-30T11:46:02.354Z",
  "rankings": [
    {
      "rank": 1,
      "station": "E14930",
      "stationName": "Chale (E14930)",
      "region": "England",
      "county": "Isle of Wight",
      "location": {
        "lat": 50.623497,
        "long": -1.307947
      },
      "value": 7.1
    },
    {
      "rank": 2,
      "station": "242534TP",
      "stationName": "Ware,broadmeads (242534TP)",
      "region": "England",
      "county": "Hertfordshire",
      "location": {
        "lat": 51.807828,
        "long": -0.03963
      },
      "value": 6.4
    },
    {
      "rank": 3,
      "station": "E4080",
      "stationName": "Chartham (E4080)",
      "region": "England",
      "county": "Kent",
      "location": {
        "lat": 51.258867,
        "long": 1.033447
      },
      "value": 5.8
    },
    {
      "rank": 4,
      "station": "E5722",
      "stationName": "Metoff Cranwell (E5722)",
      "region": "England",
      "county": "Lincolnshire",
      "location": {
        "lat": 53.031102,
        "long": -0.503575
      },
      "value": 5.4
    },
    {
      "rank": 5,
      "station": "E5721",
      "stationName": "Metoff Waddington (E5721)",
      "region": "England",
      "county": "Lincolnshire",
      "location": {
        "lat": 53.175194,
        "long": -0.524002
      },
      "value": 5
    },
    {
      "rank": 6,
      "station": "E4850",
      "stationName": "Broadstairs (E4850)",
      "region": "England",
      "county": "Kent",
      "location": {
        "lat": 51.359322,
        "long": 1.403568
      },
      "value": 4
    },
    {
      "rank": 7,
      "station": "586056",
      "stationName": "Levens Bridge End (586056)",
      "region": "England",
      "county": "Cumbria",
      "location": {
        "lat": 54.262864,
        "long": -2.811323
      },
      "value": 3.6
    },
    {
      "rank": 8,
      "station": "0925SE",
      "stationName": "Deal (0925SE)",
      "region": "England",
      "county": "Kent",
      "location": {
        "lat": 51.207877,
        "long": 1.383789
      },
      "value": 2.9
    },
    {
      "rank": 9,
      "station": "48157",
      "stationName": "Heligan (48157)",
      "region": "England",
      "county": "Cornwall",
      "location": {
        "lat": 50.286686,
        "long": -4.810984
      },
      "value": 2.7
    },
    {
      "rank": 10,
      "station": "558491",
      "stationName": "Hayfield New Mills (558491)",
      "region": "England",
      "county": "Derbyshire",
      "location": {
        "lat": 53.38925,
        "long": -1.919511
      },
      "value": 2.5
    },
    {
      "rank": 11,
      "station": "588006",
      "stationName": "Coniston Coppermines (588006)",
      "region": "England",
      "county": "Cumbria",
      "location": {
        "lat": 54.378286,
        "long": -3.103039
      },
      "value": 2.5
    },
    {
      "rank": 12,
      "station": "287946TP",
      "stationName": "Mitcham (287946TP)",
      "region": "England",
      "county": "Surrey",
      "location": {
        "lat": 51.415955,
        "long": -0.162865
      },
      "value": 2.4
    },
    {
      "rank": 13,
      "station": "3688",
      "stationName": "Evington (3688)",
      "region": "England",
      "county": "Leicestershire",
      "location": {
        "lat": 52.6315,
        "long": -1.077247
      },
      "value": 2.4
    },
    {
      "rank": 14,
      "station": "562992",
      "stationName": "Heaton Park (562992)",
      "region": "England",
      "county": "Lancashire",
      "location": {
        "lat": 53.535499,
        "long": -2.263235
      },
      "value": 2.4
    },
    {
      "rank": 15,
      "station": "E5170",
      "stationName": "Lower Standen (E5170)",
      "region": "England",
      "county": "Kent",
      "location": {
        "lat": 51.117863,
        "long": 1.194265
      },
      "value": 2.4
    },
    {
      "rank": 16,
      "station": "47170",
      "stationName": "Stoke Climsland (47170)",
      "region": "England",
      "county": "Cornwall",
      "location": {
        "lat": 50.546683,
        "long": -4.319646
      },
      "value": 2.3
    },
    {
      "rank": 17,
      "station": "3602",
      "stationName": "Waltham On The Wolds (3602)",
      "region": "England",
      "county": "Leicestershire",
      "location": {
        "lat": 52.813347,
        "long": -0.803365
      },
      "value": 2.2
    },
    {
      "rank": 18,
      "station": "3629",
      "stationName": "Burton On The Wolds (3629)",
      "region": "England",
      "county": "Derbyshire",
      "location": {
        "lat": 52.78808,
        "long": -1.097664
      },
      "value": 2.2
    },
    {
      "rank": 19,
      "station": "563170",
      "stationName": "Oldham (563170)",
      "region": "England",
      "county": "Lancashire",
      "location": {
        "lat": 53.53478,
        "long": -2.162144
      },
      "value": 2.2
    },
    {
      "rank": 20,
      "station": "573342",
      "stationName": "Stocks Res (573342)",
      "region": "England",
      "county": "Lancashire",
      "location": {
        "lat": 53.986218,
        "long": -2.429249
      },
      "value": 2.2
    },
    {
      "rank": 21,
      "station": "573674",
      "stationName": "Footholme (573674)",
      "region": "England",
      "county": "Lancashire",
      "location": {
        "lat": 53.971437,
        "long": -2.529714
      },
      "value": 2.2
    },
    {
      "rank": 22,
      "station": "600295",
      "stationName": "Glenridding Greenside Mines (600295)",
      "region": "England",
      "county": "Cumbria",
      "location": {
        "lat": 54.548278,
        "long": -2.983943
      },
      "value": 2.2
    },
    {
      "rank": 23,
      "station": "E2040",
      "stationName": "Horsmonden (E2040)",
      "region": "England",
      "county": "Kent",
      "location": {
        "lat": 51.138337,
        "long": 0.459382
      },
      "value": 2.2
    },
    {
      "rank": 24,
      "station": "E5731",
      "stationName": "Metoff Bedford (E5731)",
      "region": "England",
      "county": "Bedfordshire",
      "location": {
        "lat": 52.226854,
        "long": -0.464875
      },
      "value": 2.2
    },
    {
      "rank": 25,
      "station": "E7165",
      "stationName": "South Witham (E7165)",
      "region": "England",
      "county": "Leicestershire",
      "location": {
        "lat": 52.766451,
        "long": -0.623828
      },
      "value": 2.2
    },
    {
      "rank": 26,
      "station": "575384",
      "stationName": "Kebb Farm / Great Harwood (575384)",
      "region": "England",
      "county": "Lancashire",
      "location": {
        "lat": 53.790306,
        "long": -2.422692
      },
      "value": 2.1
    },
    {
      "rank": 27,
      "station": "592158",
      "stationName": "Egremont Ivy Hill (592158)",
      "region": "England",
      "county": "Unknown",
      "location": {
        "lat": 54.498215,
        "long": -3.557159
      },
      "value": 2.1
    },
    {
      "rank": 28,
      "station": "078772",
      "stationName": "Brownhill Reservoir (078772)",
      "region": "England",
      "county": "Lancashire",
      "location": {
        "lat": 53.552738,
        "long": -1.824111
      },
      "value": 2
    },
    {
      "rank": 29,
      "station": "305111",
      "stationName": "Cherry Gardens (305111)",
      "region": "England",
      "county": "Kent",
      "location": {
        "lat": 51.098221,
        "long": 1.155768
      },
      "value": 2
    },
    {
      "rank": 30,
      "station": "3686",
      "stationName": "Fleckney (3686)",
      "region": "England",
      "county": "Leicestershire",
      "location": {
        "lat": 52.544833,
        "long": -1.031877
      },
      "value": 2
    },
    {
      "rank": 31,
      "station": "47176",
      "stationName": "Langstone Moor (47176)",
      "region": "England",
      "county": "Devon",
      "location": {
        "lat": 50.584943,
        "long": -4.054524
      },
      "value": 2
    },
    {
      "rank": 32,
      "station": "558844",
      "stationName": "Woodhead (558844)",
      "region": "England",
      "county": "Derbyshire",
      "location": {
        "lat": 53.49079,
        "long": -1.883147
      },
      "value": 2
    },
    {
      "rank": 33,
      "station": "575335",
      "stationName": "Mearley Hall (575335)",
      "region": "England",
      "county": "Lancashire",
      "location": {
        "lat": 53.862447,
        "long": -2.348914
      },
      "value": 2
    },
    {
      "rank": 34,
      "station": "600140",
      "stationName": "Brotherswater (600140)",
      "region": "England",
      "county": "Cumbria",
      "location": {
        "lat": 54.500172,
        "long": -2.930285
      },
      "value": 2
    },
    {
      "rank": 35,
      "station": "E5451",
      "stationName": "Willop (E5451)",
      "region": "England",
      "county": "Kent",
      "location": {
        "lat": 51.007531,
        "long": 0.978517
      },
      "value": 2
    },
    {
      "rank": 36,
      "station": "E5734",
      "stationName": "Metoff Shoeburyness (E5734)",
      "region": "England",
      "county": "Essex",
      "location": {
        "lat": 51.554554,
        "long": 0.826576
      },
      "value": 2
    },
    {
      "rank": 37,
      "station": "3323",
      "stationName": "Ashbourne (3323)",
      "region": "England",
      "county": "Derbyshire",
      "location": {
        "lat": 53.025808,
        "long": -1.723384
      },
      "value": 1.9
    },
    {
      "rank": 38,
      "station": "49171",
      "stationName": "Trebrownbridge Blackadon (49171)",
      "region": "England",
      "county": "Cornwall",
      "location": {
        "lat": 50.419841,
        "long": -4.409173
      },
      "value": 1.9
    },
    {
      "rank": 39,
      "station": "558016",
      "stationName": "Cat And Fiddle (558016)",
      "region": "England",
      "county": "Derbyshire",
      "location": {
        "lat": 53.24456,
        "long": -1.997705
      },
      "value": 1.9
    },
    {
      "rank": 40,
      "station": "585160",
      "stationName": "Kentmere Hallowbank (585160)",
      "region": "England",
      "county": "Cumbria",
      "location": {
        "lat": 54.43892,
        "long": -2.825593
      },
      "value": 1.9
    },
    {
      "rank": 41,
      "station": "586898",
      "stationName": "Brathay Hall (586898)",
      "region": "England",
      "county": "Cumbria",
      "location": {
        "lat": 54.420696,
        "long": -2.979342
      },
      "value": 1.9
    },
    {
      "rank": 42,
      "station": "E4510",
      "stationName": "Sellindge (E4510)",
      "region": "England",
      "county": "Kent",
      "location": {
        "lat": 51.105558,
        "long": 0.979102
      },
      "value": 1.9
    },
    {
      "rank": 43,
      "station": "074108",
      "stationName": "Lothersdale Proctor Heights (074108)",
      "region": "England",
      "county": "Lancashire",
      "location": {
        "lat": 53.911448,
        "long": -2.098144
      },
      "value": 1.8
    },
    {
      "rank": 44,
      "station": "0744SE",
      "stationName": "Throwley (0744SE)",
      "region": "England",
      "county": "Kent",
      "location": {
        "lat": 51.266892,
        "long": 0.857627
      },
      "value": 1.8
    },
    {
      "rank": 45,
      "station": "076204",
      "stationName": "Farnley Hall (076204)",
      "region": "England",
      "county": "Lancashire",
      "location": {
        "lat": 53.787777,
        "long": -1.627332
      },
      "value": 1.8
    },
    {
      "rank": 46,
      "station": "1023SE",
      "stationName": "Canterbury (1023SE)",
      "region": "England",
      "county": "Kent",
      "location": {
        "lat": 51.294661,
        "long": 1.108973
      },
      "value": 1.8
    },
    {
      "rank": 47,
      "station": "3683",
      "stationName": "Wanlip (3683)",
      "region": "England",
      "county": "Leicestershire",
      "location": {
        "lat": 52.697431,
        "long": -1.117291
      },
      "value": 1.8
    },
    {
      "rank": 48,
      "station": "48169",
      "stationName": "St Ives (48169)",
      "region": "England",
      "county": "Cornwall",
      "location": {
        "lat": 50.191057,
        "long": -5.514391
      },
      "value": 1.8
    },
    {
      "rank": 49,
      "station": "561299",
      "stationName": "Blackstone Edge (561299)",
      "region": "England",
      "county": "Lancashire",
      "location": {
        "lat": 53.65712,
        "long": -2.049131
      },
      "value": 1.8
    },
    {
      "rank": 50,
      "station": "562656",
      "stationName": "Ringley (562656)",
      "region": "England",
      "county": "Lancashire",
      "location": {
        "lat": 53.539768,
        "long": -2.35078
      },
      "value": 1.8
    },
    {
      "rank": 51,
      "station": "587552",
      "stationName": "Tower Wood (587552)",
      "region": "England",
      "county": "Cumbria",
      "location": {
        "lat": 54.313112,
        "long": -2.946042
      },
      "value": 1.8
    },
    {
      "rank": 52,
      "station": "591878",
      "stationName": "Summergrove (591878)",
      "region": "England",
      "county": "Unknown",
      "location": {
        "lat": 54.529816,
        "long": -3.545999
      },
      "value": 1.8
    },
    {
      "rank": 53,
      "station": "E1908",
      "stationName": "Wickenby (E1908)",
      "region": "England",
      "county": "Lincolnshire",
      "location": {
        "lat": 53.316679,
        "long": -0.344986
      },
      "value": 1.8
    },
    {
      "rank": 54,
      "station": "E1976",
      "stationName": "Wing (E1976)",
      "region": "England",
      "county": "Leicestershire",
      "location": {
        "lat": 52.615107,
        "long": -0.675844
      },
      "value": 1.8
    },
    {
      "rank": 55,
      "station": "E5732",
      "stationName": "Metoff Wattisham (E5732)",
      "region": "England",
      "county": "Suffolk",
      "location": {
        "lat": 52.124227,
        "long": 0.957474
      },
      "value": 1.8
    },
    {
      "rank": 56,
      "station": "E7130",
      "stationName": "Cadney (E7130)",
      "region": "England",
      "county": "Lincolnshire",
      "location": {
        "lat": 53.534467,
        "long": -0.499466
      },
      "value": 1.8
    },
    {
      "rank": 57,
      "station": "073422",
      "stationName": "Malham Tarn (073422)",
      "region": "England",
      "county": "Cumbria",
      "location": {
        "lat": 54.100116,
        "long": -2.164345
      },
      "value": 1.7
    },
    {
      "rank": 58,
      "station": "079621",
      "stationName": "Heckmondwike Bottoms (079621)",
      "region": "England",
      "county": "Lancashire",
      "location": {
        "lat": 53.698015,
        "long": -1.667505
      },
      "value": 1.7
    },
    {
      "rank": 59,
      "station": "558975",
      "stationName": "Padfield Reservoir (558975)",
      "region": "England",
      "county": "Derbyshire",
      "location": {
        "lat": 53.463871,
        "long": -1.947989
      },
      "value": 1.7
    },
    {
      "rank": 60,
      "station": "559969",
      "stationName": "Denton (559969)",
      "region": "England",
      "county": "Cheshire",
      "location": {
        "lat": 53.459311,
        "long": -2.134747
      },
      "value": 1.7
    },
    {
      "rank": 61,
      "station": "571894",
      "stationName": "Stainforth (571894)",
      "region": "England",
      "county": "Cumbria",
      "location": {
        "lat": 54.103514,
        "long": -2.27294
      },
      "value": 1.7
    },
    {
      "rank": 62,
      "station": "600986",
      "stationName": "Wet Sleddale (600986)",
      "region": "England",
      "county": "Cumbria",
      "location": {
        "lat": 54.497284,
        "long": -2.690895
      },
      "value": 1.7
    },
    {
      "rank": 63,
      "station": "E1645",
      "stationName": "Goxhill (E1645)",
      "region": "England",
      "county": "Lincolnshire",
      "location": {
        "lat": 53.664551,
        "long": -0.343494
      },
      "value": 1.7
    },
    {
      "rank": 64,
      "station": "E3281",
      "stationName": "Faversham (E3281)",
      "region": "England",
      "county": "Kent",
      "location": {
        "lat": 51.324099,
        "long": 0.908555
      },
      "value": 1.7
    },
    {
      "rank": 65,
      "station": "032822",
      "stationName": "Harpington Hill (032822)",
      "region": "England",
      "county": "Durham",
      "location": {
        "lat": 54.633845,
        "long": -1.480219
      },
      "value": 1.6
    },
    {
      "rank": 66,
      "station": "061431",
      "stationName": "Littondale (061431)",
      "region": "England",
      "county": "Cumbria",
      "location": {
        "lat": 54.163943,
        "long": -2.152346
      },
      "value": 1.6
    },
    {
      "rank": 67,
      "station": "062046",
      "stationName": "Grimwith Reservoir (062046)",
      "region": "England",
      "county": "Lancashire",
      "location": {
        "lat": 54.071438,
        "long": -1.913617
      },
      "value": 1.6
    },
    {
      "rank": 68,
      "station": "074924",
      "stationName": "Lower Laithe Reservoir (074924)",
      "region": "England",
      "county": "Lancashire",
      "location": {
        "lat": 53.829697,
        "long": -1.976406
      },
      "value": 1.6
    },
    {
      "rank": 69,
      "station": "077066",
      "stationName": "Gorpley Reservoir (077066)",
      "region": "England",
      "county": "Lancashire",
      "location": {
        "lat": 53.70469,
        "long": -2.135531
      },
      "value": 1.6
    },
    {
      "rank": 70,
      "station": "077800",
      "stationName": "Great Wolden Edge (077800)",
      "region": "England",
      "county": "Lancashire",
      "location": {
        "lat": 53.636457,
        "long": -2.005248
      },
      "value": 1.6
    },
    {
      "rank": 71,
      "station": "3014",
      "stationName": "Stone (3014)",
      "region": "England",
      "county": "Staffordshire",
      "location": {
        "lat": 52.886657,
        "long": -2.182004
      },
      "value": 1.6
    },
    {
      "rank": 72,
      "station": "3173",
      "stationName": "Kingsley (3173)",
      "region": "England",
      "county": "Derbyshire",
      "location": {
        "lat": 53.017139,
        "long": -1.981319
      },
      "value": 1.6
    },
    {
      "rank": 73,
      "station": "3347",
      "stationName": "Loggerheads (3347)",
      "region": "England",
      "county": "Staffordshire",
      "location": {
        "lat": 52.905076,
        "long": -2.37685
      },
      "value": 1.6
    },
    {
      "rank": 74,
      "station": "3380",
      "stationName": "Derwent Reservoir (3380)",
      "region": "England",
      "county": "Derbyshire",
      "location": {
        "lat": 53.405172,
        "long": -1.738982
      },
      "value": 1.6
    },
    {
      "rank": 75,
      "station": "3576",
      "stationName": "Longcliffe (3576)",
      "region": "England",
      "county": "Derbyshire",
      "location": {
        "lat": 53.093957,
        "long": -1.658736
      },
      "value": 1.6
    },
    {
      "rank": 76,
      "station": "3610",
      "stationName": "Thornton (3610)",
      "region": "England",
      "county": "Leicestershire",
      "location": {
        "lat": 52.655516,
        "long": -1.302927
      },
      "value": 1.6
    },
    {
      "rank": 77,
      "station": "3687",
      "stationName": "Whissendine (3687)",
      "region": "England",
      "county": "Leicestershire",
      "location": {
        "lat": 52.723063,
        "long": -0.765859
      },
      "value": 1.6
    },
    {
      "rank": 78,
      "station": "47160",
      "stationName": "Kilkhampton (47160)",
      "region": "England",
      "county": "Devon",
      "location": {
        "lat": 50.877791,
        "long": -4.488167
      },
      "value": 1.6
    },
    {
      "rank": 79,
      "station": "47164",
      "stationName": "Dousland (47164)",
      "region": "England",
      "county": "Devon",
      "location": {
        "lat": 50.501188,
        "long": -4.060758
      },
      "value": 1.6
    },
    {
      "rank": 80,
      "station": "555207",
      "stationName": "Mow Cop (555207)",
      "region": "England",
      "county": "Cheshire",
      "location": {
        "lat": 53.114913,
        "long": -2.221812
      },
      "value": 1.6
    },
    {
      "rank": 81,
      "station": "559586",
      "stationName": "Greenfield (559586)",
      "region": "England",
      "county": "Lancashire",
      "location": {
        "lat": 53.534889,
        "long": -2.012778
      },
      "value": 1.6
    },
    {
      "rank": 82,
      "station": "562417",
      "stationName": "Sweetloves (562417)",
      "region": "England",
      "county": "Lancashire",
      "location": {
        "lat": 53.60958,
        "long": -2.440532
      },
      "value": 1.6
    },
    {
      "rank": 83,
      "station": "564769",
      "stationName": "Prestbury (564769)",
      "region": "England",
      "county": "Cheshire",
      "location": {
        "lat": 53.300189,
        "long": -2.155251
      },
      "value": 1.6
    },
    {
      "rank": 84,
      "station": "585122",
      "stationName": "Dubbs Reservoir (585122)",
      "region": "England",
      "county": "Cumbria",
      "location": {
        "lat": 54.406987,
        "long": -2.892739
      },
      "value": 1.6
    },
    {
      "rank": 85,
      "station": "585512",
      "stationName": "Watchgate (585512)",
      "region": "England",
      "county": "Cumbria",
      "location": {
        "lat": 54.37577,
        "long": -2.72272
      },
      "value": 1.6
    },
    {
      "rank": 86,
      "station": "591419",
      "stationName": "Calder Hall (591419)",
      "region": "England",
      "county": "Cumbria",
      "location": {
        "lat": 54.427181,
        "long": -3.488178
      },
      "value": 1.6
    },
    {
      "rank": 87,
      "station": "592860",
      "stationName": "Thirlmere St John&#39;s Beck (592860)",
      "region": "England",
      "county": "Cumbria",
      "location": {
        "lat": 54.56648,
        "long": -3.063261
      },
      "value": 1.6
    },
    {
      "rank": 88,
      "station": "E24763",
      "stationName": "Drayton Parslow (E24763)",
      "region": "England",
      "county": "Bedfordshire",
      "location": {
        "lat": 51.949875,
        "long": -0.766824
      },
      "value": 1.6
    },
    {
      "rank": 89,
      "station": "E4540",
      "stationName": "Charing (E4540)",
      "region": "England",
      "county": "Kent",
      "location": {
        "lat": 51.202987,
        "long": 0.784947
      },
      "value": 1.6
    },
    {
      "rank": 90,
      "station": "E4753",
      "stationName": "Parsonage Farm (E4753)",
      "region": "England",
      "county": "Kent",
      "location": {
        "lat": 51.160348,
        "long": 1.119955
      },
      "value": 1.6
    },
    {
      "rank": 91,
      "station": "Egerton1",
      "stationName": "Egerton Dimple Road (Egerton1)",
      "region": "England",
      "county": "Lancashire",
      "location": {
        "lat": 53.636515,
        "long": -2.448375
      },
      "value": 1.6
    },
    {
      "rank": 92,
      "station": "0924SE",
      "stationName": "Eastry (0924SE)",
      "region": "England",
      "county": "Kent",
      "location": {
        "lat": 51.251014,
        "long": 1.322456
      },
      "value": 1.5
    },
    {
      "rank": 93,
      "station": "47112",
      "stationName": "Lee Moor (47112)",
      "region": "England",
      "county": "Devon",
      "location": {
        "lat": 50.440912,
        "long": -4.010253
      },
      "value": 1.5
    },
    {
      "rank": 94,
      "station": "584772",
      "stationName": "Fisher Tarn (584772)",
      "region": "England",
      "county": "Cumbria",
      "location": {
        "lat": 54.328305,
        "long": -2.694209
      },
      "value": 1.5
    },
    {
      "rank": 95,
      "station": "591642",
      "stationName": "Ennerdale (591642)",
      "region": "England",
      "county": "Cumbria",
      "location": {
        "lat": 54.525099,
        "long": -3.417569
      },
      "value": 1.5
    },
    {
      "rank": 96,
      "station": "600683",
      "stationName": "High Row (600683)",
      "region": "England",
      "county": "Cumbria",
      "location": {
        "lat": 54.592579,
        "long": -2.950962
      },
      "value": 1.5
    },
    {
      "rank": 97,
      "station": "E2510",
      "stationName": "Kibworth Rain-e Wits (E2510)",
      "region": "England",
      "county": "Leicestershire",
      "location": {
        "lat": 52.535424,
        "long": -0.981957
      },
      "value": 1.5
    },
    {
      "rank": 98,
      "station": "E2544",
      "stationName": "Oundle Rain-e Wits (E2544)",
      "region": "England",
      "county": "Cambridgeshire",
      "location": {
        "lat": 52.495753,
        "long": -0.470258
      },
      "value": 1.5
    },
    {
      "rank": 99,
      "station": "063518",
      "stationName": "Eccup Reservoir (063518)",
      "region": "England",
      "county": "Lancashire",
      "location": {
        "lat": 53.876425,
        "long": -1.532241
      },
      "value": 1.4
    },
    {
      "rank": 100,
      "station": "074385",
      "stationName": "Snaygill (074385)",
      "region": "England",
      "county": "Lancashire",
      "location": {
        "lat": 53.947438,
        "long": -2.020525
      },
      "value": 1.4
    }
  ]
}