{
  "metric": "rainy_days",
  "period": "7d",
  "unit": "days",
  "generated_at": "2025-09-30T11:46:05.631Z",
  "rankings": [
    {
      "rank": 1,
      "station": "586493",
      "stationName": "High Newton (586493)",
      "region": "England",
      "county": "Cumbria",
      "location": {
        "lat": 54.246782,
        "long": -2.923038
      },
      "value": 6
    },
    {
      "rank": 2,
      "station": "E5724",
      "stationName": "Metoff Wainfleet (E5724)",
      "region": "England",
      "county": "Lincolnshire",
      "location": {
        "lat": 53.088074,
        "long": 0.270439
      },
      "value": 6
    },
    {
      "rank": 3,
      "station": "E5728",
      "stationName": "Metoff Marham (E5728)",
      "region": "England",
      "county": "Norfolk",
      "location": {
        "lat": 52.651369,
        "long": 0.565622
      },
      "value": 6
    },
    {
      "rank": 4,
      "station": "E5732",
      "stationName": "Metoff Wattisham (E5732)",
      "region": "England",
      "county": "Suffolk",
      "location": {
        "lat": 52.124227,
        "long": 0.957474
      },
      "value": 6
    },
    {
      "rank": 5,
      "station": "E5733",
      "stationName": "Metoff Andrewsfield (E5733)",
      "region": "England",
      "county": "Essex",
      "location": {
        "lat": 51.895742,
        "long": 0.451114
      },
      "value": 6
    },
    {
      "rank": 6,
      "station": "026090",
      "stationName": "Peterlee (026090)",
      "region": "England",
      "county": "Durham",
      "location": {
        "lat": 54.760776,
        "long": -1.340287
      },
      "value": 5
    },
    {
      "rank": 7,
      "station": "242819TP",
      "stationName": "Widford (242819TP)",
      "region": "England",
      "county": "Essex",
      "location": {
        "lat": 51.827809,
        "long": 0.054118
      },
      "value": 5
    },
    {
      "rank": 8,
      "station": "3323",
      "stationName": "Ashbourne (3323)",
      "region": "England",
      "county": "Derbyshire",
      "location": {
        "lat": 53.025808,
        "long": -1.723384
      },
      "value": 5
    },
    {
      "rank": 9,
      "station": "3404",
      "stationName": "Barbrook (3404)",
      "region": "England",
      "county": "Derbyshire",
      "location": {
        "lat": 53.287863,
        "long": -1.579192
      },
      "value": 5
    },
    {
      "rank": 10,
      "station": "47161",
      "stationName": "Gunnislake (47161)",
      "region": "England",
      "county": "Cornwall",
      "location": {
        "lat": 50.516447,
        "long": -4.209541
      },
      "value": 5
    },
    {
      "rank": 11,
      "station": "52150",
      "stationName": "Yeovilton Met Office (52150)",
      "region": "England",
      "county": "Somerset",
      "location": {
        "lat": 51.005958,
        "long": -2.643449
      },
      "value": 5
    },
    {
      "rank": 12,
      "station": "586056",
      "stationName": "Levens Bridge End (586056)",
      "region": "England",
      "county": "Cumbria",
      "location": {
        "lat": 54.262864,
        "long": -2.811323
      },
      "value": 5
    },
    {
      "rank": 13,
      "station": "E5722",
      "stationName": "Metoff Cranwell (E5722)",
      "region": "England",
      "county": "Lincolnshire",
      "location": {
        "lat": 53.031102,
        "long": -0.503575
      },
      "value": 5
    },
    {
      "rank": 14,
      "station": "E5723",
      "stationName": "Metoff Coningsby (E5723)",
      "region": "England",
      "county": "Lincolnshire",
      "location": {
        "lat": 53.093909,
        "long": -0.172837
      },
      "value": 5
    },
    {
      "rank": 15,
      "station": "E5727",
      "stationName": "Metoff Holbeach (E5727)",
      "region": "England",
      "county": "Lincolnshire",
      "location": {
        "lat": 52.872934,
        "long": 0.138821
      },
      "value": 5
    },
    {
      "rank": 16,
      "station": "E5734",
      "stationName": "Metoff Shoeburyness (E5734)",
      "region": "England",
      "county": "Essex",
      "location": {
        "lat": 51.554554,
        "long": 0.826576
      },
      "value": 5
    },
    {
      "rank": 17,
      "station": "000028",
      "stationName": "Langsett Reservoir (000028)",
      "region": "England",
      "county": "Lancashire",
      "location": {
        "lat": 53.500289,
        "long": -1.673575
      },
      "value": 4
    },
    {
      "rank": 18,
      "station": "022163",
      "stationName": "Tunstall Reservoir (022163)",
      "region": "England",
      "county": "Durham",
      "location": {
        "lat": 54.761631,
        "long": -1.902834
      },
      "value": 4
    },
    {
      "rank": 19,
      "station": "025878",
      "stationName": "North Dalton (025878)",
      "region": "England",
      "county": "Durham",
      "location": {
        "lat": 54.823818,
        "long": -1.36572
      },
      "value": 4
    },
    {
      "rank": 20,
      "station": "028502",
      "stationName": "Old Spital Farm (028502)",
      "region": "England",
      "county": "Cumbria",
      "location": {
        "lat": 54.504568,
        "long": -2.141258
      },
      "value": 4
    },
    {
      "rank": 21,
      "station": "035024NE",
      "stationName": "Scaling Reservoir (035024NE)",
      "region": "England",
      "county": "Unknown",
      "location": {
        "lat": 54.505434,
        "long": -0.84558
      },
      "value": 4
    },
    {
      "rank": 22,
      "station": "035103",
      "stationName": "Staithes (035103)",
      "region": "England",
      "county": "Unknown",
      "location": {
        "lat": 54.541989,
        "long": -0.815179
      },
      "value": 4
    },
    {
      "rank": 23,
      "station": "036704",
      "stationName": "Robin Hoods Bay (036704)",
      "region": "England",
      "county": "Yorkshire",
      "location": {
        "lat": 54.434842,
        "long": -0.550006
      },
      "value": 4
    },
    {
      "rank": 24,
      "station": "037239",
      "stationName": "Scarborough (037239)",
      "region": "England",
      "county": "Unknown",
      "location": {
        "lat": 54.27325,
        "long": -0.422074
      },
      "value": 4
    },
    {
      "rank": 25,
      "station": "037292",
      "stationName": "Filey (037292)",
      "region": "England",
      "county": "Unknown",
      "location": {
        "lat": 54.204227,
        "long": -0.30358
      },
      "value": 4
    },
    {
      "rank": 26,
      "station": "054371",
      "stationName": "East Cowton (054371)",
      "region": "England",
      "county": "Lancashire",
      "location": {
        "lat": 54.419203,
        "long": -1.515299
      },
      "value": 4
    },
    {
      "rank": 27,
      "station": "061431",
      "stationName": "Littondale (061431)",
      "region": "England",
      "county": "Cumbria",
      "location": {
        "lat": 54.163943,
        "long": -2.152346
      },
      "value": 4
    },
    {
      "rank": 28,
      "station": "077952",
      "stationName": "Halifax Ogden Reservoir (077952)",
      "region": "England",
      "county": "Lancashire",
      "location": {
        "lat": 53.772138,
        "long": -1.90361
      },
      "value": 4
    },
    {
      "rank": 29,
      "station": "1793",
      "stationName": "Long Mynd (1793)",
      "region": "England",
      "county": "Powys",
      "location": {
        "lat": 52.518531,
        "long": -2.881966
      },
      "value": 4
    },
    {
      "rank": 30,
      "station": "3100",
      "stationName": "Clay Mills (3100)",
      "region": "England",
      "county": "Derbyshire",
      "location": {
        "lat": 52.830414,
        "long": -1.607371
      },
      "value": 4
    },
    {
      "rank": 31,
      "station": "3339",
      "stationName": "Sutton Coldfield (3339)",
      "region": "England",
      "county": "Staffordshire",
      "location": {
        "lat": 52.55502,
        "long": -1.878268
      },
      "value": 4
    },
    {
      "rank": 32,
      "station": "3576",
      "stationName": "Longcliffe (3576)",
      "region": "England",
      "county": "Derbyshire",
      "location": {
        "lat": 53.093957,
        "long": -1.658736
      },
      "value": 4
    },
    {
      "rank": 33,
      "station": "3588",
      "stationName": "Meynell Langley (3588)",
      "region": "England",
      "county": "Derbyshire",
      "location": {
        "lat": 52.958861,
        "long": -1.577925
      },
      "value": 4
    },
    {
      "rank": 34,
      "station": "3901",
      "stationName": "Worksop (3901)",
      "region": "England",
      "county": "Derbyshire",
      "location": {
        "lat": 53.305797,
        "long": -1.088289
      },
      "value": 4
    },
    {
      "rank": 35,
      "station": "47160",
      "stationName": "Kilkhampton (47160)",
      "region": "England",
      "county": "Devon",
      "location": {
        "lat": 50.877791,
        "long": -4.488167
      },
      "value": 4
    },
    {
      "rank": 36,
      "station": "48102",
      "stationName": "Rosewarne (48102)",
      "region": "England",
      "county": "Cornwall",
      "location": {
        "lat": 50.223298,
        "long": -5.305022
      },
      "value": 4
    },
    {
      "rank": 37,
      "station": "561299",
      "stationName": "Blackstone Edge (561299)",
      "region": "England",
      "county": "Lancashire",
      "location": {
        "lat": 53.65712,
        "long": -2.049131
      },
      "value": 4
    },
    {
      "rank": 38,
      "station": "585512",
      "stationName": "Watchgate (585512)",
      "region": "England",
      "county": "Cumbria",
      "location": {
        "lat": 54.37577,
        "long": -2.72272
      },
      "value": 4
    },
    {
      "rank": 39,
      "station": "592158",
      "stationName": "Egremont Ivy Hill (592158)",
      "region": "England",
      "county": "Unknown",
      "location": {
        "lat": 54.498215,
        "long": -3.557159
      },
      "value": 4
    },
    {
      "rank": 40,
      "station": "600140",
      "stationName": "Brotherswater (600140)",
      "region": "England",
      "county": "Cumbria",
      "location": {
        "lat": 54.500172,
        "long": -2.930285
      },
      "value": 4
    },
    {
      "rank": 41,
      "station": "E14930",
      "stationName": "Chale (E14930)",
      "region": "England",
      "county": "Isle of Wight",
      "location": {
        "lat": 50.623497,
        "long": -1.307947
      },
      "value": 4
    },
    {
      "rank": 42,
      "station": "E15510",
      "stationName": "Knockholt (E15510)",
      "region": "England",
      "county": "Kent",
      "location": {
        "lat": 51.307175,
        "long": 0.102521
      },
      "value": 4
    },
    {
      "rank": 43,
      "station": "E22400",
      "stationName": "Kirtling Green Fgs And Rg Wits (E22400)",
      "region": "England",
      "county": "Cambridgeshire",
      "location": {
        "lat": 52.177103,
        "long": 0.456319
      },
      "value": 4
    },
    {
      "rank": 44,
      "station": "E7190",
      "stationName": "Toft Newton Reservoir (E7190)",
      "region": "England",
      "county": "Lincolnshire",
      "location": {
        "lat": 53.37292,
        "long": -0.449533
      },
      "value": 4
    },
    {
      "rank": 45,
      "station": "E9660",
      "stationName": "Storrington (E9660)",
      "region": "England",
      "county": "West Sussex",
      "location": {
        "lat": 50.929364,
        "long": -0.469557
      },
      "value": 4
    },
    {
      "rank": 46,
      "station": "E99682",
      "stationName": "Dunkeswell Aerodrome Met Office (E99682)",
      "region": "England",
      "county": "Devon",
      "location": {
        "lat": 50.859966,
        "long": -3.239613
      },
      "value": 4
    },
    {
      "rank": 47,
      "station": "Egerton1",
      "stationName": "Egerton Dimple Road (Egerton1)",
      "region": "England",
      "county": "Lancashire",
      "location": {
        "lat": 53.636515,
        "long": -2.448375
      },
      "value": 4
    },
    {
      "rank": 48,
      "station": "000076TP",
      "stationName": "Prestwood Reservoir (000076TP)",
      "region": "England",
      "county": "Buckinghamshire",
      "location": {
        "lat": 51.701508,
        "long": -0.747539
      },
      "value": 3
    },
    {
      "rank": 49,
      "station": "000182TP",
      "stationName": "Stevenage (000182TP)",
      "region": "England",
      "county": "Hertfordshire",
      "location": {
        "lat": 51.885257,
        "long": -0.156869
      },
      "value": 3
    },
    {
      "rank": 50,
      "station": "013336",
      "stationName": "Hartside (013336)",
      "region": "England",
      "county": "Cumbria",
      "location": {
        "lat": 54.774946,
        "long": -2.516845
      },
      "value": 3
    },
    {
      "rank": 51,
      "station": "022994",
      "stationName": "Copley (022994)",
      "region": "England",
      "county": "Durham",
      "location": {
        "lat": 54.624106,
        "long": -1.870637
      },
      "value": 3
    },
    {
      "rank": 52,
      "station": "025394",
      "stationName": "Washington (025394)",
      "region": "England",
      "county": "Durham",
      "location": {
        "lat": 54.894495,
        "long": -1.489343
      },
      "value": 3
    },
    {
      "rank": 53,
      "station": "026644",
      "stationName": "Cow Green Reservoir (026644)",
      "region": "England",
      "county": "Cumbria",
      "location": {
        "lat": 54.656189,
        "long": -2.285935
      },
      "value": 3
    },
    {
      "rank": 54,
      "station": "028185",
      "stationName": "Lartington Filters (028185)",
      "region": "England",
      "county": "Durham",
      "location": {
        "lat": 54.560368,
        "long": -1.983723
      },
      "value": 3
    },
    {
      "rank": 55,
      "station": "032822",
      "stationName": "Harpington Hill (032822)",
      "region": "England",
      "county": "Durham",
      "location": {
        "lat": 54.633845,
        "long": -1.480219
      },
      "value": 3
    },
    {
      "rank": 56,
      "station": "035302",
      "stationName": "Runswick Bay (035302)",
      "region": "England",
      "county": "Unknown",
      "location": {
        "lat": 54.517093,
        "long": -0.752561
      },
      "value": 3
    },
    {
      "rank": 57,
      "station": "035305",
      "stationName": "Sandsend (035305)",
      "region": "England",
      "county": "Yorkshire",
      "location": {
        "lat": 54.486239,
        "long": -0.724171
      },
      "value": 3
    },
    {
      "rank": 58,
      "station": "035488",
      "stationName": "Westerdale (035488)",
      "region": "England",
      "county": "Yorkshire",
      "location": {
        "lat": 54.438313,
        "long": -0.976984
      },
      "value": 3
    },
    {
      "rank": 59,
      "station": "036487",
      "stationName": "Randy Mere Reservoir (036487)",
      "region": "England",
      "county": "Yorkshire",
      "location": {
        "lat": 54.408361,
        "long": -0.754323
      },
      "value": 3
    },
    {
      "rank": 60,
      "station": "037973",
      "stationName": "Hawnby (037973)",
      "region": "England",
      "county": "Yorkshire",
      "location": {
        "lat": 54.297778,
        "long": -1.167931
      },
      "value": 3
    },
    {
      "rank": 61,
      "station": "038476",
      "stationName": "Flamborough (038476)",
      "region": "England",
      "county": "Unknown",
      "location": {
        "lat": 54.107252,
        "long": -0.128568
      },
      "value": 3
    },
    {
      "rank": 62,
      "station": "039163",
      "stationName": "Bridlington (039163)",
      "region": "England",
      "county": "Unknown",
      "location": {
        "lat": 54.100377,
        "long": -0.208409
      },
      "value": 3
    },
    {
      "rank": 63,
      "station": "051250",
      "stationName": "Ivelet Grainholme Farm (051250)",
      "region": "England",
      "county": "Cumbria",
      "location": {
        "lat": 54.379686,
        "long": -2.105419
      },
      "value": 3
    },
    {
      "rank": 64,
      "station": "051729",
      "stationName": "Arkle Town (051729)",
      "region": "England",
      "county": "Lancashire",
      "location": {
        "lat": 54.413883,
        "long": -1.988402
      },
      "value": 3
    },
    {
      "rank": 65,
      "station": "058461",
      "stationName": "Scargill Reservoir (058461)",
      "region": "England",
      "county": "Lancashire",
      "location": {
        "lat": 53.979278,
        "long": -1.646973
      },
      "value": 3
    },
    {
      "rank": 66,
      "station": "060947",
      "stationName": "Beckermonds (060947)",
      "region": "England",
      "county": "Cumbria",
      "location": {
        "lat": 54.218703,
        "long": -2.195488
      },
      "value": 3
    },
    {
      "rank": 67,
      "station": "062046",
      "stationName": "Grimwith Reservoir (062046)",
      "region": "England",
      "county": "Lancashire",
      "location": {
        "lat": 54.071438,
        "long": -1.913617
      },
      "value": 3
    },
    {
      "rank": 68,
      "station": "074108",
      "stationName": "Lothersdale Proctor Heights (074108)",
      "region": "England",
      "county": "Lancashire",
      "location": {
        "lat": 53.911448,
        "long": -2.098144
      },
      "value": 3
    },
    {
      "rank": 69,
      "station": "074329",
      "stationName": "Embsay Reservoir (074329)",
      "region": "England",
      "county": "Lancashire",
      "location": {
        "lat": 53.986087,
        "long": -1.999194
      },
      "value": 3
    },
    {
      "rank": 70,
      "station": "075233",
      "stationName": "Thornton Moor Reservoir (075233)",
      "region": "England",
      "county": "Lancashire",
      "location": {
        "lat": 53.79732,
        "long": -1.924807
      },
      "value": 3
    },
    {
      "rank": 71,
      "station": "076204",
      "stationName": "Farnley Hall (076204)",
      "region": "England",
      "county": "Lancashire",
      "location": {
        "lat": 53.787777,
        "long": -1.627332
      },
      "value": 3
    },
    {
      "rank": 72,
      "station": "077066",
      "stationName": "Gorpley Reservoir (077066)",
      "region": "England",
      "county": "Lancashire",
      "location": {
        "lat": 53.70469,
        "long": -2.135531
      },
      "value": 3
    },
    {
      "rank": 73,
      "station": "077336",
      "stationName": "Gorple Reservoir (077336)",
      "region": "England",
      "county": "Lancashire",
      "location": {
        "lat": 53.77754,
        "long": -2.084173
      },
      "value": 3
    },
    {
      "rank": 74,
      "station": "077800",
      "stationName": "Great Wolden Edge (077800)",
      "region": "England",
      "county": "Lancashire",
      "location": {
        "lat": 53.636457,
        "long": -2.005248
      },
      "value": 3
    },
    {
      "rank": 75,
      "station": "077836",
      "stationName": "Ringstone Reservoir (077836)",
      "region": "England",
      "county": "Lancashire",
      "location": {
        "lat": 53.657107,
        "long": -1.925056
      },
      "value": 3
    },
    {
      "rank": 76,
      "station": "078530",
      "stationName": "Marsden Butterley Reservoir (078530)",
      "region": "England",
      "county": "Lancashire",
      "location": {
        "lat": 53.592394,
        "long": -1.929702
      },
      "value": 3
    },
    {
      "rank": 77,
      "station": "078772",
      "stationName": "Brownhill Reservoir (078772)",
      "region": "England",
      "county": "Lancashire",
      "location": {
        "lat": 53.552738,
        "long": -1.824111
      },
      "value": 3
    },
    {
      "rank": 78,
      "station": "078922",
      "stationName": "Honley Ludhill Farm (078922)",
      "region": "England",
      "county": "Lancashire",
      "location": {
        "lat": 53.60567,
        "long": -1.766463
      },
      "value": 3
    },
    {
      "rank": 79,
      "station": "1332",
      "stationName": "Walkmills (1332)",
      "region": "England",
      "county": "Unknown",
      "location": {
        "lat": 52.589321,
        "long": -2.78744
      },
      "value": 3
    },
    {
      "rank": 80,
      "station": "1773",
      "stationName": "Hindlip (1773)",
      "region": "England",
      "county": "Worcestershire",
      "location": {
        "lat": 52.222319,
        "long": -2.17488
      },
      "value": 3
    },
    {
      "rank": 81,
      "station": "240816TP",
      "stationName": "Whitwell (240816TP)",
      "region": "England",
      "county": "Bedfordshire",
      "location": {
        "lat": 51.873475,
        "long": -0.269208
      },
      "value": 3
    },
    {
      "rank": 82,
      "station": "241243TP",
      "stationName": "Weston (241243TP)",
      "region": "England",
      "county": "Hertfordshire",
      "location": {
        "lat": 51.950719,
        "long": -0.145455
      },
      "value": 3
    },
    {
      "rank": 83,
      "station": "243131TP",
      "stationName": "Stansted (243131TP)",
      "region": "England",
      "county": "Essex",
      "location": {
        "lat": 51.897439,
        "long": 0.182296
      },
      "value": 3
    },
    {
      "rank": 84,
      "station": "243543TP",
      "stationName": "Takeley (243543TP)",
      "region": "England",
      "county": "Essex",
      "location": {
        "lat": 51.866534,
        "long": 0.247617
      },
      "value": 3
    },
    {
      "rank": 85,
      "station": "244569TP",
      "stationName": "Darnicle Hill (244569TP)",
      "region": "England",
      "county": "Hertfordshire",
      "location": {
        "lat": 51.727077,
        "long": -0.10539
      },
      "value": 3
    },
    {
      "rank": 86,
      "station": "253861TP",
      "stationName": "Worsham (253861TP)",
      "region": "England",
      "county": "Gloucestershire",
      "location": {
        "lat": 51.794582,
        "long": -1.562775
      },
      "value": 3
    },
    {
      "rank": 87,
      "station": "261602TP",
      "stationName": "Dancers End (261602TP)",
      "region": "England",
      "county": "Buckinghamshire",
      "location": {
        "lat": 51.772802,
        "long": -0.689041
      },
      "value": 3
    },
    {
      "rank": 88,
      "station": "270397",
      "stationName": "Reading University (270397)",
      "region": "England",
      "county": "Berkshire",
      "location": {
        "lat": 51.44172,
        "long": -0.937391
      },
      "value": 3
    },
    {
      "rank": 89,
      "station": "274918TP",
      "stationName": "Bracknell (274918TP)",
      "region": "England",
      "county": "Berkshire",
      "location": {
        "lat": 51.440044,
        "long": -0.766213
      },
      "value": 3
    },
    {
      "rank": 90,
      "station": "276956TP",
      "stationName": "Markyate (276956TP)",
      "region": "England",
      "county": "Bedfordshire",
      "location": {
        "lat": 51.828295,
        "long": -0.446536
      },
      "value": 3
    },
    {
      "rank": 91,
      "station": "287946TP",
      "stationName": "Mitcham (287946TP)",
      "region": "England",
      "county": "Surrey",
      "location": {
        "lat": 51.415955,
        "long": -0.162865
      },
      "value": 3
    },
    {
      "rank": 92,
      "station": "290200TP",
      "stationName": "Sundridge (290200TP)",
      "region": "England",
      "county": "Kent",
      "location": {
        "lat": 51.280521,
        "long": 0.134285
      },
      "value": 3
    },
    {
      "rank": 93,
      "station": "300001TP",
      "stationName": "East Worldham (300001TP)",
      "region": "England",
      "county": "Hampshire",
      "location": {
        "lat": 51.13979,
        "long": -0.960059
      },
      "value": 3
    },
    {
      "rank": 94,
      "station": "3015",
      "stationName": "Byrkley (3015)",
      "region": "England",
      "county": "Derbyshire",
      "location": {
        "lat": 52.808314,
        "long": -1.74405
      },
      "value": 3
    },
    {
      "rank": 95,
      "station": "3025",
      "stationName": "Rodbaston (3025)",
      "region": "England",
      "county": "Staffordshire",
      "location": {
        "lat": 52.701554,
        "long": -2.119078
      },
      "value": 3
    },
    {
      "rank": 96,
      "station": "3099",
      "stationName": "Blithfield (3099)",
      "region": "England",
      "county": "Derbyshire",
      "location": {
        "lat": 52.807639,
        "long": -1.889433
      },
      "value": 3
    },
    {
      "rank": 97,
      "station": "3110",
      "stationName": "Tittesworth (3110)",
      "region": "England",
      "county": "Cheshire",
      "location": {
        "lat": 53.122311,
        "long": -2.011159
      },
      "value": 3
    },
    {
      "rank": 98,
      "station": "3165",
      "stationName": "Waseley Hills (3165)",
      "region": "England",
      "county": "Worcestershire",
      "location": {
        "lat": 52.399545,
        "long": -2.050654
      },
      "value": 3
    },
    {
      "rank": 99,
      "station": "3346",
      "stationName": "Cresswell (3346)",
      "region": "England",
      "county": "Staffordshire",
      "location": {
        "lat": 52.95331,
        "long": -2.040883
      },
      "value": 3
    },
    {
      "rank": 100,
      "station": "3570",
      "stationName": "Cauldon Low (3570)",
      "region": "England",
      "county": "Derbyshire",
      "location": {
        "lat": 53.029694,
        "long": -1.914215
      },
      "value": 3
    }
  ]
}