{
  "metric": "rainy_days",
  "period": "24h",
  "unit": "days",
  "generated_at": "2025-10-01T05:23:03.839Z",
  "rankings": [
    {
      "rank": 1,
      "station": "013045",
      "stationName": "Garrigill Noonstones Hill (013045)",
      "region": "England",
      "county": "Cumbria",
      "location": {
        "lat": 54.742208,
        "long": -2.378185
      },
      "value": 2
    },
    {
      "rank": 2,
      "station": "013878",
      "stationName": "Knarsdale (013878)",
      "region": "England",
      "county": "Cumbria",
      "location": {
        "lat": 54.871077,
        "long": -2.52275
      },
      "value": 2
    },
    {
      "rank": 3,
      "station": "014555",
      "stationName": "Haltwhistle (014555)",
      "region": "England",
      "county": "Cumbria",
      "location": {
        "lat": 54.97002,
        "long": -2.500603
      },
      "value": 2
    },
    {
      "rank": 4,
      "station": "569323",
      "stationName": "Crossens (569323)",
      "region": "England",
      "county": "Lancashire",
      "location": {
        "lat": 53.678587,
        "long": -2.942358
      },
      "value": 2
    },
    {
      "rank": 5,
      "station": "577271",
      "stationName": "Red Br (577271)",
      "region": "England",
      "county": "Lancashire",
      "location": {
        "lat": 53.783353,
        "long": -2.991754
      },
      "value": 2
    },
    {
      "rank": 6,
      "station": "577417",
      "stationName": "Fleetwood (577417)",
      "region": "England",
      "county": "Unknown",
      "location": {
        "lat": 53.908061,
        "long": -3.019063
      },
      "value": 2
    },
    {
      "rank": 7,
      "station": "579167",
      "stationName": "Pilling Sewage Works (579167)",
      "region": "England",
      "county": "Lancashire",
      "location": {
        "lat": 53.897316,
        "long": -2.901619
      },
      "value": 2
    },
    {
      "rank": 8,
      "station": "579623",
      "stationName": "Hazelrigg (579623)",
      "region": "England",
      "county": "Cumbria",
      "location": {
        "lat": 54.01325,
        "long": -2.77441
      },
      "value": 2
    },
    {
      "rank": 9,
      "station": "583948",
      "stationName": "Schola Green (583948)",
      "region": "England",
      "county": "Cumbria",
      "location": {
        "lat": 54.064769,
        "long": -2.863989
      },
      "value": 2
    },
    {
      "rank": 10,
      "station": "584772",
      "stationName": "Fisher Tarn (584772)",
      "region": "England",
      "county": "Cumbria",
      "location": {
        "lat": 54.328305,
        "long": -2.694209
      },
      "value": 2
    },
    {
      "rank": 11,
      "station": "585122",
      "stationName": "Dubbs Reservoir (585122)",
      "region": "England",
      "county": "Cumbria",
      "location": {
        "lat": 54.406987,
        "long": -2.892739
      },
      "value": 2
    },
    {
      "rank": 12,
      "station": "585160",
      "stationName": "Kentmere Hallowbank (585160)",
      "region": "England",
      "county": "Cumbria",
      "location": {
        "lat": 54.43892,
        "long": -2.825593
      },
      "value": 2
    },
    {
      "rank": 13,
      "station": "585512",
      "stationName": "Watchgate (585512)",
      "region": "England",
      "county": "Cumbria",
      "location": {
        "lat": 54.37577,
        "long": -2.72272
      },
      "value": 2
    },
    {
      "rank": 14,
      "station": "586056",
      "stationName": "Levens Bridge End (586056)",
      "region": "England",
      "county": "Cumbria",
      "location": {
        "lat": 54.262864,
        "long": -2.811323
      },
      "value": 2
    },
    {
      "rank": 15,
      "station": "586493",
      "stationName": "High Newton (586493)",
      "region": "England",
      "county": "Cumbria",
      "location": {
        "lat": 54.246782,
        "long": -2.923038
      },
      "value": 2
    },
    {
      "rank": 16,
      "station": "586898",
      "stationName": "Brathay Hall (586898)",
      "region": "England",
      "county": "Cumbria",
      "location": {
        "lat": 54.420696,
        "long": -2.979342
      },
      "value": 2
    },
    {
      "rank": 17,
      "station": "587552",
      "stationName": "Tower Wood (587552)",
      "region": "England",
      "county": "Cumbria",
      "location": {
        "lat": 54.313112,
        "long": -2.946042
      },
      "value": 2
    },
    {
      "rank": 18,
      "station": "588006",
      "stationName": "Coniston Coppermines (588006)",
      "region": "England",
      "county": "Cumbria",
      "location": {
        "lat": 54.378286,
        "long": -3.103039
      },
      "value": 2
    },
    {
      "rank": 19,
      "station": "588705",
      "stationName": "Poaka Beck (588705)",
      "region": "England",
      "county": "Cumbria",
      "location": {
        "lat": 54.190769,
        "long": -3.163942
      },
      "value": 2
    },
    {
      "rank": 20,
      "station": "588886",
      "stationName": "Palace Nook (588886)",
      "region": "England",
      "county": "Cumbria",
      "location": {
        "lat": 54.136092,
        "long": -3.238939
      },
      "value": 2
    },
    {
      "rank": 21,
      "station": "591419",
      "stationName": "Calder Hall (591419)",
      "region": "England",
      "county": "Cumbria",
      "location": {
        "lat": 54.427181,
        "long": -3.488178
      },
      "value": 2
    },
    {
      "rank": 22,
      "station": "591642",
      "stationName": "Ennerdale (591642)",
      "region": "England",
      "county": "Cumbria",
      "location": {
        "lat": 54.525099,
        "long": -3.417569
      },
      "value": 2
    },
    {
      "rank": 23,
      "station": "591878",
      "stationName": "Summergrove (591878)",
      "region": "England",
      "county": "Unknown",
      "location": {
        "lat": 54.529816,
        "long": -3.545999
      },
      "value": 2
    },
    {
      "rank": 24,
      "station": "592158",
      "stationName": "Egremont Ivy Hill (592158)",
      "region": "England",
      "county": "Unknown",
      "location": {
        "lat": 54.498215,
        "long": -3.557159
      },
      "value": 2
    },
    {
      "rank": 25,
      "station": "592860",
      "stationName": "Thirlmere St John&#39;s Beck (592860)",
      "region": "England",
      "county": "Cumbria",
      "location": {
        "lat": 54.56648,
        "long": -3.063261
      },
      "value": 2
    },
    {
      "rank": 26,
      "station": "593362",
      "stationName": "Keswick Sewage Treatment Works (593362)",
      "region": "England",
      "county": "Cumbria",
      "location": {
        "lat": 54.614148,
        "long": -3.157414
      },
      "value": 2
    },
    {
      "rank": 27,
      "station": "593893",
      "stationName": "Sunderland (593893)",
      "region": "England",
      "county": "Cumbria",
      "location": {
        "lat": 54.703741,
        "long": -3.274806
      },
      "value": 2
    },
    {
      "rank": 28,
      "station": "594202",
      "stationName": "Cornhow (594202)",
      "region": "England",
      "county": "Cumbria",
      "location": {
        "lat": 54.58826,
        "long": -3.316076
      },
      "value": 2
    },
    {
      "rank": 29,
      "station": "595273",
      "stationName": "Quarry Hill (595273)",
      "region": "England",
      "county": "Cumbria",
      "location": {
        "lat": 54.760082,
        "long": -3.214413
      },
      "value": 2
    },
    {
      "rank": 30,
      "station": "596026",
      "stationName": "Abbeytown (596026)",
      "region": "England",
      "county": "Cumbria",
      "location": {
        "lat": 54.849851,
        "long": -3.310562
      },
      "value": 2
    },
    {
      "rank": 31,
      "station": "596791",
      "stationName": "Thursby (596791)",
      "region": "England",
      "county": "Cumbria",
      "location": {
        "lat": 54.843273,
        "long": -3.064299
      },
      "value": 2
    },
    {
      "rank": 32,
      "station": "600140",
      "stationName": "Brotherswater (600140)",
      "region": "England",
      "county": "Cumbria",
      "location": {
        "lat": 54.500172,
        "long": -2.930285
      },
      "value": 2
    },
    {
      "rank": 33,
      "station": "600295",
      "stationName": "Glenridding Greenside Mines (600295)",
      "region": "England",
      "county": "Cumbria",
      "location": {
        "lat": 54.548278,
        "long": -2.983943
      },
      "value": 2
    },
    {
      "rank": 34,
      "station": "600683",
      "stationName": "High Row (600683)",
      "region": "England",
      "county": "Cumbria",
      "location": {
        "lat": 54.592579,
        "long": -2.950962
      },
      "value": 2
    },
    {
      "rank": 35,
      "station": "600735",
      "stationName": "Green Close Farm (600735)",
      "region": "England",
      "county": "Cumbria",
      "location": {
        "lat": 54.630789,
        "long": -2.88989
      },
      "value": 2
    },
    {
      "rank": 36,
      "station": "600986",
      "stationName": "Wet Sleddale (600986)",
      "region": "England",
      "county": "Cumbria",
      "location": {
        "lat": 54.497284,
        "long": -2.690895
      },
      "value": 2
    },
    {
      "rank": 37,
      "station": "604142",
      "stationName": "Castle Carrock (604142)",
      "region": "England",
      "county": "Cumbria",
      "location": {
        "lat": 54.889007,
        "long": -2.708497
      },
      "value": 2
    },
    {
      "rank": 38,
      "station": "604742",
      "stationName": "Newton Rigg (604742)",
      "region": "England",
      "county": "Cumbria",
      "location": {
        "lat": 54.670137,
        "long": -2.788412
      },
      "value": 2
    },
    {
      "rank": 39,
      "station": "605324",
      "stationName": "Force Crag Mine (605324)",
      "region": "England",
      "county": "Cumbria",
      "location": {
        "lat": 54.583702,
        "long": -3.237013
      },
      "value": 2
    },
    {
      "rank": 40,
      "station": "605543",
      "stationName": "Calebreck Hall (605543)",
      "region": "England",
      "county": "Cumbria",
      "location": {
        "lat": 54.713365,
        "long": -3.01743
      },
      "value": 2
    },
    {
      "rank": 41,
      "station": "605936",
      "stationName": "Skelton (605936)",
      "region": "England",
      "county": "Cumbria",
      "location": {
        "lat": 54.716254,
        "long": -2.87779
      },
      "value": 2
    },
    {
      "rank": 42,
      "station": "606299",
      "stationName": "Willowholme (606299)",
      "region": "England",
      "county": "Cumbria",
      "location": {
        "lat": 54.899013,
        "long": -2.953493
      },
      "value": 2
    },
    {
      "rank": 43,
      "station": "E5733",
      "stationName": "Metoff Andrewsfield (E5733)",
      "region": "England",
      "county": "Essex",
      "location": {
        "lat": 51.895742,
        "long": 0.451114
      },
      "value": 2
    },
    {
      "rank": 44,
      "station": "013336",
      "stationName": "Hartside (013336)",
      "region": "England",
      "county": "Cumbria",
      "location": {
        "lat": 54.774946,
        "long": -2.516845
      },
      "value": 1
    },
    {
      "rank": 45,
      "station": "015347",
      "stationName": "Allenheads Allen Lodge (015347)",
      "region": "England",
      "county": "Cumbria",
      "location": {
        "lat": 54.804602,
        "long": -2.221644
      },
      "value": 1
    },
    {
      "rank": 46,
      "station": "016140",
      "stationName": "Hexham Firtrees (016140)",
      "region": "England",
      "county": "Cumbria",
      "location": {
        "lat": 54.960162,
        "long": -2.160033
      },
      "value": 1
    },
    {
      "rank": 47,
      "station": "018777",
      "stationName": "Stanley Hustledown (018777)",
      "region": "England",
      "county": "Durham",
      "location": {
        "lat": 54.860973,
        "long": -1.670477
      },
      "value": 1
    },
    {
      "rank": 48,
      "station": "021228",
      "stationName": "Burnhope Reservoir (021228)",
      "region": "England",
      "county": "Cumbria",
      "location": {
        "lat": 54.747962,
        "long": -2.235316
      },
      "value": 1
    },
    {
      "rank": 49,
      "station": "022163",
      "stationName": "Tunstall Reservoir (022163)",
      "region": "England",
      "county": "Durham",
      "location": {
        "lat": 54.761631,
        "long": -1.902834
      },
      "value": 1
    },
    {
      "rank": 50,
      "station": "023839",
      "stationName": "Knitsley (023839)",
      "region": "England",
      "county": "Durham",
      "location": {
        "lat": 54.829815,
        "long": -1.807716
      },
      "value": 1
    },
    {
      "rank": 51,
      "station": "024121",
      "stationName": "Esh Winning (024121)",
      "region": "England",
      "county": "Durham",
      "location": {
        "lat": 54.774754,
        "long": -1.689832
      },
      "value": 1
    },
    {
      "rank": 52,
      "station": "026644",
      "stationName": "Cow Green Reservoir (026644)",
      "region": "England",
      "county": "Cumbria",
      "location": {
        "lat": 54.656189,
        "long": -2.285935
      },
      "value": 1
    },
    {
      "rank": 53,
      "station": "028185",
      "stationName": "Lartington Filters (028185)",
      "region": "England",
      "county": "Durham",
      "location": {
        "lat": 54.560368,
        "long": -1.983723
      },
      "value": 1
    },
    {
      "rank": 54,
      "station": "028502",
      "stationName": "Old Spital Farm (028502)",
      "region": "England",
      "county": "Cumbria",
      "location": {
        "lat": 54.504568,
        "long": -2.141258
      },
      "value": 1
    },
    {
      "rank": 55,
      "station": "040492",
      "stationName": "Winestead (040492)",
      "region": "England",
      "county": "Lincolnshire",
      "location": {
        "lat": 53.6913,
        "long": -0.031959
      },
      "value": 1
    },
    {
      "rank": 56,
      "station": "047281",
      "stationName": "Snaizeholme Tow Hill (047281)",
      "region": "England",
      "county": "Cumbria",
      "location": {
        "lat": 54.275194,
        "long": -2.263325
      },
      "value": 1
    },
    {
      "rank": 57,
      "station": "047439",
      "stationName": "Sedbusk (047439)",
      "region": "England",
      "county": "Cumbria",
      "location": {
        "lat": 54.31489,
        "long": -2.180572
      },
      "value": 1
    },
    {
      "rank": 58,
      "station": "051250",
      "stationName": "Ivelet Grainholme Farm (051250)",
      "region": "England",
      "county": "Cumbria",
      "location": {
        "lat": 54.379686,
        "long": -2.105419
      },
      "value": 1
    },
    {
      "rank": 59,
      "station": "052287",
      "stationName": "Richmond Green Howard Road (052287)",
      "region": "England",
      "county": "Lancashire",
      "location": {
        "lat": 54.409101,
        "long": -1.735735
      },
      "value": 1
    },
    {
      "rank": 60,
      "station": "061431",
      "stationName": "Littondale (061431)",
      "region": "England",
      "county": "Cumbria",
      "location": {
        "lat": 54.163943,
        "long": -2.152346
      },
      "value": 1
    },
    {
      "rank": 61,
      "station": "062046",
      "stationName": "Grimwith Reservoir (062046)",
      "region": "England",
      "county": "Lancashire",
      "location": {
        "lat": 54.071438,
        "long": -1.913617
      },
      "value": 1
    },
    {
      "rank": 62,
      "station": "073422",
      "stationName": "Malham Tarn (073422)",
      "region": "England",
      "county": "Cumbria",
      "location": {
        "lat": 54.100116,
        "long": -2.164345
      },
      "value": 1
    },
    {
      "rank": 63,
      "station": "074108",
      "stationName": "Lothersdale Proctor Heights (074108)",
      "region": "England",
      "county": "Lancashire",
      "location": {
        "lat": 53.911448,
        "long": -2.098144
      },
      "value": 1
    },
    {
      "rank": 64,
      "station": "074385",
      "stationName": "Snaygill (074385)",
      "region": "England",
      "county": "Lancashire",
      "location": {
        "lat": 53.947438,
        "long": -2.020525
      },
      "value": 1
    },
    {
      "rank": 65,
      "station": "074924",
      "stationName": "Lower Laithe Reservoir (074924)",
      "region": "England",
      "county": "Lancashire",
      "location": {
        "lat": 53.829697,
        "long": -1.976406
      },
      "value": 1
    },
    {
      "rank": 66,
      "station": "077066",
      "stationName": "Gorpley Reservoir (077066)",
      "region": "England",
      "county": "Lancashire",
      "location": {
        "lat": 53.70469,
        "long": -2.135531
      },
      "value": 1
    },
    {
      "rank": 67,
      "station": "077336",
      "stationName": "Gorple Reservoir (077336)",
      "region": "England",
      "county": "Lancashire",
      "location": {
        "lat": 53.77754,
        "long": -2.084173
      },
      "value": 1
    },
    {
      "rank": 68,
      "station": "077952",
      "stationName": "Halifax Ogden Reservoir (077952)",
      "region": "England",
      "county": "Lancashire",
      "location": {
        "lat": 53.772138,
        "long": -1.90361
      },
      "value": 1
    },
    {
      "rank": 69,
      "station": "1140",
      "stationName": "Dowdeswell (1140)",
      "region": "England",
      "county": "Gloucestershire",
      "location": {
        "lat": 51.875411,
        "long": -2.019556
      },
      "value": 1
    },
    {
      "rank": 70,
      "station": "1332",
      "stationName": "Walkmills (1332)",
      "region": "England",
      "county": "Unknown",
      "location": {
        "lat": 52.589321,
        "long": -2.78744
      },
      "value": 1
    },
    {
      "rank": 71,
      "station": "238777TP",
      "stationName": "Moreton (238777TP)",
      "region": "England",
      "county": "Essex",
      "location": {
        "lat": 51.736595,
        "long": 0.223782
      },
      "value": 1
    },
    {
      "rank": 72,
      "station": "238944TP",
      "stationName": "Stanford Rivers (238944TP)",
      "region": "England",
      "county": "Essex",
      "location": {
        "lat": 51.677024,
        "long": 0.235326
      },
      "value": 1
    },
    {
      "rank": 73,
      "station": "242819TP",
      "stationName": "Widford (242819TP)",
      "region": "England",
      "county": "Essex",
      "location": {
        "lat": 51.827809,
        "long": 0.054118
      },
      "value": 1
    },
    {
      "rank": 74,
      "station": "261602TP",
      "stationName": "Dancers End (261602TP)",
      "region": "England",
      "county": "Buckinghamshire",
      "location": {
        "lat": 51.772802,
        "long": -0.689041
      },
      "value": 1
    },
    {
      "rank": 75,
      "station": "287141TP",
      "stationName": "Cheam (287141TP)",
      "region": "England",
      "county": "Surrey",
      "location": {
        "lat": 51.362722,
        "long": -0.209526
      },
      "value": 1
    },
    {
      "rank": 76,
      "station": "288092TP",
      "stationName": "Norwood Reservoir (288092TP)",
      "region": "England",
      "county": "Surrey",
      "location": {
        "lat": 51.4214,
        "long": -0.109429
      },
      "value": 1
    },
    {
      "rank": 77,
      "station": "3766",
      "stationName": "Nottingham Watnall (3766)",
      "region": "England",
      "county": "Derbyshire",
      "location": {
        "lat": 53.005795,
        "long": -1.251101
      },
      "value": 1
    },
    {
      "rank": 78,
      "station": "47161",
      "stationName": "Gunnislake (47161)",
      "region": "England",
      "county": "Cornwall",
      "location": {
        "lat": 50.516447,
        "long": -4.209541
      },
      "value": 1
    },
    {
      "rank": 79,
      "station": "48102",
      "stationName": "Rosewarne (48102)",
      "region": "England",
      "county": "Cornwall",
      "location": {
        "lat": 50.223298,
        "long": -5.305022
      },
      "value": 1
    },
    {
      "rank": 80,
      "station": "48170",
      "stationName": "Wendron (48170)",
      "region": "England",
      "county": "Cornwall",
      "location": {
        "lat": 50.131262,
        "long": -5.251088
      },
      "value": 1
    },
    {
      "rank": 81,
      "station": "49105",
      "stationName": "De Lank (49105)",
      "region": "England",
      "county": "Cornwall",
      "location": {
        "lat": 50.558792,
        "long": -4.637937
      },
      "value": 1
    },
    {
      "rank": 82,
      "station": "49151",
      "stationName": "St Cleer (49151)",
      "region": "England",
      "county": "Cornwall",
      "location": {
        "lat": 50.480775,
        "long": -4.463019
      },
      "value": 1
    },
    {
      "rank": 83,
      "station": "50199",
      "stationName": "Lapford Bowerthy (50199)",
      "region": "England",
      "county": "Devon",
      "location": {
        "lat": 50.873373,
        "long": -3.798545
      },
      "value": 1
    },
    {
      "rank": 84,
      "station": "52201",
      "stationName": "Priddy (52201)",
      "region": "England",
      "county": "Somerset",
      "location": {
        "lat": 51.270102,
        "long": -2.682969
      },
      "value": 1
    },
    {
      "rank": 85,
      "station": "551440",
      "stationName": "Folly Gates (551440)",
      "region": "England",
      "county": "Cheshire",
      "location": {
        "lat": 53.276556,
        "long": -2.854006
      },
      "value": 1
    },
    {
      "rank": 86,
      "station": "560631",
      "stationName": "Bacup (560631)",
      "region": "England",
      "county": "Lancashire",
      "location": {
        "lat": 53.718989,
        "long": -2.194675
      },
      "value": 1
    },
    {
      "rank": 87,
      "station": "560943",
      "stationName": "Holden Wood (560943)",
      "region": "England",
      "county": "Lancashire",
      "location": {
        "lat": 53.697953,
        "long": -2.353609
      },
      "value": 1
    },
    {
      "rank": 88,
      "station": "562417",
      "stationName": "Sweetloves (562417)",
      "region": "England",
      "county": "Lancashire",
      "location": {
        "lat": 53.60958,
        "long": -2.440532
      },
      "value": 1
    },
    {
      "rank": 89,
      "station": "562656",
      "stationName": "Ringley (562656)",
      "region": "England",
      "county": "Lancashire",
      "location": {
        "lat": 53.539768,
        "long": -2.35078
      },
      "value": 1
    },
    {
      "rank": 90,
      "station": "564154",
      "stationName": "Bedford (564154)",
      "region": "England",
      "county": "Cheshire",
      "location": {
        "lat": 53.497891,
        "long": -2.499671
      },
      "value": 1
    },
    {
      "rank": 91,
      "station": "564160",
      "stationName": "Richard Fairclough House (564160)",
      "region": "England",
      "county": "Cheshire",
      "location": {
        "lat": 53.381621,
        "long": -2.570469
      },
      "value": 1
    },
    {
      "rank": 92,
      "station": "567866",
      "stationName": "Fazakerley (567866)",
      "region": "England",
      "county": "Cheshire",
      "location": {
        "lat": 53.460365,
        "long": -2.916431
      },
      "value": 1
    },
    {
      "rank": 93,
      "station": "569723",
      "stationName": "Rivington (569723)",
      "region": "England",
      "county": "Lancashire",
      "location": {
        "lat": 53.604601,
        "long": -2.556847
      },
      "value": 1
    },
    {
      "rank": 94,
      "station": "569848",
      "stationName": "Worthington (569848)",
      "region": "England",
      "county": "Lancashire",
      "location": {
        "lat": 53.58714,
        "long": -2.633659
      },
      "value": 1
    },
    {
      "rank": 95,
      "station": "570099",
      "stationName": "Billinge Hill (570099)",
      "region": "England",
      "county": "Lancashire",
      "location": {
        "lat": 53.511139,
        "long": -2.721493
      },
      "value": 1
    },
    {
      "rank": 96,
      "station": "570231",
      "stationName": "Hoscar (570231)",
      "region": "England",
      "county": "Lancashire",
      "location": {
        "lat": 53.596101,
        "long": -2.789423
      },
      "value": 1
    },
    {
      "rank": 97,
      "station": "570788",
      "stationName": "Common Bank (570788)",
      "region": "England",
      "county": "Lancashire",
      "location": {
        "lat": 53.653543,
        "long": -2.654324
      },
      "value": 1
    },
    {
      "rank": 98,
      "station": "571894",
      "stationName": "Stainforth (571894)",
      "region": "England",
      "county": "Cumbria",
      "location": {
        "lat": 54.103514,
        "long": -2.27294
      },
      "value": 1
    },
    {
      "rank": 99,
      "station": "573674",
      "stationName": "Footholme (573674)",
      "region": "England",
      "county": "Lancashire",
      "location": {
        "lat": 53.971437,
        "long": -2.529714
      },
      "value": 1
    },
    {
      "rank": 100,
      "station": "574656",
      "stationName": "Trawden (574656)",
      "region": "England",
      "county": "Lancashire",
      "location": {
        "lat": 53.833251,
        "long": -2.102519
      },
      "value": 1
    }
  ]
}