{
  "metric": "rainy_days",
  "period": "all-time",
  "unit": "days",
  "generated_at": "2025-10-01T08:26:15.818Z",
  "rankings": [
    {
      "rank": 1,
      "station": "586493",
      "stationName": "High Newton (586493)",
      "region": "England",
      "county": "Cumbria",
      "location": {
        "lat": 54.246782,
        "long": -2.923038
      },
      "value": 13
    },
    {
      "rank": 2,
      "station": "586056",
      "stationName": "Levens Bridge End (586056)",
      "region": "England",
      "county": "Cumbria",
      "location": {
        "lat": 54.262864,
        "long": -2.811323
      },
      "value": 11
    },
    {
      "rank": 3,
      "station": "600140",
      "stationName": "Brotherswater (600140)",
      "region": "England",
      "county": "Cumbria",
      "location": {
        "lat": 54.500172,
        "long": -2.930285
      },
      "value": 11
    },
    {
      "rank": 4,
      "station": "028502",
      "stationName": "Old Spital Farm (028502)",
      "region": "England",
      "county": "Cumbria",
      "location": {
        "lat": 54.504568,
        "long": -2.141258
      },
      "value": 10
    },
    {
      "rank": 5,
      "station": "E5733",
      "stationName": "Metoff Andrewsfield (E5733)",
      "region": "England",
      "county": "Essex",
      "location": {
        "lat": 51.895742,
        "long": 0.451114
      },
      "value": 10
    },
    {
      "rank": 6,
      "station": "026644",
      "stationName": "Cow Green Reservoir (026644)",
      "region": "England",
      "county": "Cumbria",
      "location": {
        "lat": 54.656189,
        "long": -2.285935
      },
      "value": 9
    },
    {
      "rank": 7,
      "station": "051250",
      "stationName": "Ivelet Grainholme Farm (051250)",
      "region": "England",
      "county": "Cumbria",
      "location": {
        "lat": 54.379686,
        "long": -2.105419
      },
      "value": 9
    },
    {
      "rank": 8,
      "station": "060947",
      "stationName": "Beckermonds (060947)",
      "region": "England",
      "county": "Cumbria",
      "location": {
        "lat": 54.218703,
        "long": -2.195488
      },
      "value": 9
    },
    {
      "rank": 9,
      "station": "061431",
      "stationName": "Littondale (061431)",
      "region": "England",
      "county": "Cumbria",
      "location": {
        "lat": 54.163943,
        "long": -2.152346
      },
      "value": 9
    },
    {
      "rank": 10,
      "station": "077066",
      "stationName": "Gorpley Reservoir (077066)",
      "region": "England",
      "county": "Lancashire",
      "location": {
        "lat": 53.70469,
        "long": -2.135531
      },
      "value": 9
    },
    {
      "rank": 11,
      "station": "242819TP",
      "stationName": "Widford (242819TP)",
      "region": "England",
      "county": "Essex",
      "location": {
        "lat": 51.827809,
        "long": 0.054118
      },
      "value": 9
    },
    {
      "rank": 12,
      "station": "3323",
      "stationName": "Ashbourne (3323)",
      "region": "England",
      "county": "Derbyshire",
      "location": {
        "lat": 53.025808,
        "long": -1.723384
      },
      "value": 9
    },
    {
      "rank": 13,
      "station": "49105",
      "stationName": "De Lank (49105)",
      "region": "England",
      "county": "Cornwall",
      "location": {
        "lat": 50.558792,
        "long": -4.637937
      },
      "value": 9
    },
    {
      "rank": 14,
      "station": "581159",
      "stationName": "Sedbergh (581159)",
      "region": "England",
      "county": "Cumbria",
      "location": {
        "lat": 54.31472,
        "long": -2.538727
      },
      "value": 9
    },
    {
      "rank": 15,
      "station": "584772",
      "stationName": "Fisher Tarn (584772)",
      "region": "England",
      "county": "Cumbria",
      "location": {
        "lat": 54.328305,
        "long": -2.694209
      },
      "value": 9
    },
    {
      "rank": 16,
      "station": "585160",
      "stationName": "Kentmere Hallowbank (585160)",
      "region": "England",
      "county": "Cumbria",
      "location": {
        "lat": 54.43892,
        "long": -2.825593
      },
      "value": 9
    },
    {
      "rank": 17,
      "station": "585512",
      "stationName": "Watchgate (585512)",
      "region": "England",
      "county": "Cumbria",
      "location": {
        "lat": 54.37577,
        "long": -2.72272
      },
      "value": 9
    },
    {
      "rank": 18,
      "station": "586898",
      "stationName": "Brathay Hall (586898)",
      "region": "England",
      "county": "Cumbria",
      "location": {
        "lat": 54.420696,
        "long": -2.979342
      },
      "value": 9
    },
    {
      "rank": 19,
      "station": "591419",
      "stationName": "Calder Hall (591419)",
      "region": "England",
      "county": "Cumbria",
      "location": {
        "lat": 54.427181,
        "long": -3.488178
      },
      "value": 9
    },
    {
      "rank": 20,
      "station": "594202",
      "stationName": "Cornhow (594202)",
      "region": "England",
      "county": "Cumbria",
      "location": {
        "lat": 54.58826,
        "long": -3.316076
      },
      "value": 9
    },
    {
      "rank": 21,
      "station": "600683",
      "stationName": "High Row (600683)",
      "region": "England",
      "county": "Cumbria",
      "location": {
        "lat": 54.592579,
        "long": -2.950962
      },
      "value": 9
    },
    {
      "rank": 22,
      "station": "E5722",
      "stationName": "Metoff Cranwell (E5722)",
      "region": "England",
      "county": "Lincolnshire",
      "location": {
        "lat": 53.031102,
        "long": -0.503575
      },
      "value": 9
    },
    {
      "rank": 23,
      "station": "E5732",
      "stationName": "Metoff Wattisham (E5732)",
      "region": "England",
      "county": "Suffolk",
      "location": {
        "lat": 52.124227,
        "long": 0.957474
      },
      "value": 9
    },
    {
      "rank": 24,
      "station": "000028",
      "stationName": "Langsett Reservoir (000028)",
      "region": "England",
      "county": "Lancashire",
      "location": {
        "lat": 53.500289,
        "long": -1.673575
      },
      "value": 8
    },
    {
      "rank": 25,
      "station": "022163",
      "stationName": "Tunstall Reservoir (022163)",
      "region": "England",
      "county": "Durham",
      "location": {
        "lat": 54.761631,
        "long": -1.902834
      },
      "value": 8
    },
    {
      "rank": 26,
      "station": "022994",
      "stationName": "Copley (022994)",
      "region": "England",
      "county": "Durham",
      "location": {
        "lat": 54.624106,
        "long": -1.870637
      },
      "value": 8
    },
    {
      "rank": 27,
      "station": "026090",
      "stationName": "Peterlee (026090)",
      "region": "England",
      "county": "Durham",
      "location": {
        "lat": 54.760776,
        "long": -1.340287
      },
      "value": 8
    },
    {
      "rank": 28,
      "station": "028185",
      "stationName": "Lartington Filters (028185)",
      "region": "England",
      "county": "Durham",
      "location": {
        "lat": 54.560368,
        "long": -1.983723
      },
      "value": 8
    },
    {
      "rank": 29,
      "station": "047439",
      "stationName": "Sedbusk (047439)",
      "region": "England",
      "county": "Cumbria",
      "location": {
        "lat": 54.31489,
        "long": -2.180572
      },
      "value": 8
    },
    {
      "rank": 30,
      "station": "051729",
      "stationName": "Arkle Town (051729)",
      "region": "England",
      "county": "Lancashire",
      "location": {
        "lat": 54.413883,
        "long": -1.988402
      },
      "value": 8
    },
    {
      "rank": 31,
      "station": "062046",
      "stationName": "Grimwith Reservoir (062046)",
      "region": "England",
      "county": "Lancashire",
      "location": {
        "lat": 54.071438,
        "long": -1.913617
      },
      "value": 8
    },
    {
      "rank": 32,
      "station": "074108",
      "stationName": "Lothersdale Proctor Heights (074108)",
      "region": "England",
      "county": "Lancashire",
      "location": {
        "lat": 53.911448,
        "long": -2.098144
      },
      "value": 8
    },
    {
      "rank": 33,
      "station": "077952",
      "stationName": "Halifax Ogden Reservoir (077952)",
      "region": "England",
      "county": "Lancashire",
      "location": {
        "lat": 53.772138,
        "long": -1.90361
      },
      "value": 8
    },
    {
      "rank": 34,
      "station": "1332",
      "stationName": "Walkmills (1332)",
      "region": "England",
      "county": "Unknown",
      "location": {
        "lat": 52.589321,
        "long": -2.78744
      },
      "value": 8
    },
    {
      "rank": 35,
      "station": "3404",
      "stationName": "Barbrook (3404)",
      "region": "England",
      "county": "Derbyshire",
      "location": {
        "lat": 53.287863,
        "long": -1.579192
      },
      "value": 8
    },
    {
      "rank": 36,
      "station": "48102",
      "stationName": "Rosewarne (48102)",
      "region": "England",
      "county": "Cornwall",
      "location": {
        "lat": 50.223298,
        "long": -5.305022
      },
      "value": 8
    },
    {
      "rank": 37,
      "station": "52150",
      "stationName": "Yeovilton Met Office (52150)",
      "region": "England",
      "county": "Somerset",
      "location": {
        "lat": 51.005958,
        "long": -2.643449
      },
      "value": 8
    },
    {
      "rank": 38,
      "station": "558016",
      "stationName": "Cat And Fiddle (558016)",
      "region": "England",
      "county": "Derbyshire",
      "location": {
        "lat": 53.24456,
        "long": -1.997705
      },
      "value": 8
    },
    {
      "rank": 39,
      "station": "561299",
      "stationName": "Blackstone Edge (561299)",
      "region": "England",
      "county": "Lancashire",
      "location": {
        "lat": 53.65712,
        "long": -2.049131
      },
      "value": 8
    },
    {
      "rank": 40,
      "station": "571894",
      "stationName": "Stainforth (571894)",
      "region": "England",
      "county": "Cumbria",
      "location": {
        "lat": 54.103514,
        "long": -2.27294
      },
      "value": 8
    },
    {
      "rank": 41,
      "station": "585122",
      "stationName": "Dubbs Reservoir (585122)",
      "region": "England",
      "county": "Cumbria",
      "location": {
        "lat": 54.406987,
        "long": -2.892739
      },
      "value": 8
    },
    {
      "rank": 42,
      "station": "588705",
      "stationName": "Poaka Beck (588705)",
      "region": "England",
      "county": "Cumbria",
      "location": {
        "lat": 54.190769,
        "long": -3.163942
      },
      "value": 8
    },
    {
      "rank": 43,
      "station": "588886",
      "stationName": "Palace Nook (588886)",
      "region": "England",
      "county": "Cumbria",
      "location": {
        "lat": 54.136092,
        "long": -3.238939
      },
      "value": 8
    },
    {
      "rank": 44,
      "station": "592158",
      "stationName": "Egremont Ivy Hill (592158)",
      "region": "England",
      "county": "Cumbria",
      "location": {
        "lat": 54.498215,
        "long": -3.557159
      },
      "value": 8
    },
    {
      "rank": 45,
      "station": "592860",
      "stationName": "Thirlmere St John&#39;s Beck (592860)",
      "region": "England",
      "county": "Cumbria",
      "location": {
        "lat": 54.56648,
        "long": -3.063261
      },
      "value": 8
    },
    {
      "rank": 46,
      "station": "593362",
      "stationName": "Keswick Sewage Treatment Works (593362)",
      "region": "England",
      "county": "Cumbria",
      "location": {
        "lat": 54.614148,
        "long": -3.157414
      },
      "value": 8
    },
    {
      "rank": 47,
      "station": "593893",
      "stationName": "Sunderland (593893)",
      "region": "England",
      "county": "Cumbria",
      "location": {
        "lat": 54.703741,
        "long": -3.274806
      },
      "value": 8
    },
    {
      "rank": 48,
      "station": "600735",
      "stationName": "Green Close Farm (600735)",
      "region": "England",
      "county": "Cumbria",
      "location": {
        "lat": 54.630789,
        "long": -2.88989
      },
      "value": 8
    },
    {
      "rank": 49,
      "station": "605324",
      "stationName": "Force Crag Mine (605324)",
      "region": "England",
      "county": "Cumbria",
      "location": {
        "lat": 54.583702,
        "long": -3.237013
      },
      "value": 8
    },
    {
      "rank": 50,
      "station": "E5724",
      "stationName": "Metoff Wainfleet (E5724)",
      "region": "England",
      "county": "Lincolnshire",
      "location": {
        "lat": 53.088074,
        "long": 0.270439
      },
      "value": 8
    },
    {
      "rank": 51,
      "station": "E5728",
      "stationName": "Metoff Marham (E5728)",
      "region": "England",
      "county": "Norfolk",
      "location": {
        "lat": 52.651369,
        "long": 0.565622
      },
      "value": 8
    },
    {
      "rank": 52,
      "station": "E5734",
      "stationName": "Metoff Shoeburyness (E5734)",
      "region": "England",
      "county": "Essex",
      "location": {
        "lat": 51.554554,
        "long": 0.826576
      },
      "value": 8
    },
    {
      "rank": 53,
      "station": "E9660",
      "stationName": "Storrington (E9660)",
      "region": "England",
      "county": "West Sussex",
      "location": {
        "lat": 50.929364,
        "long": -0.469557
      },
      "value": 8
    },
    {
      "rank": 54,
      "station": "Egerton1",
      "stationName": "Egerton Dimple Road (Egerton1)",
      "region": "England",
      "county": "Lancashire",
      "location": {
        "lat": 53.636515,
        "long": -2.448375
      },
      "value": 8
    },
    {
      "rank": 55,
      "station": "013336",
      "stationName": "Hartside (013336)",
      "region": "England",
      "county": "Cumbria",
      "location": {
        "lat": 54.774946,
        "long": -2.516845
      },
      "value": 7
    },
    {
      "rank": 56,
      "station": "013878",
      "stationName": "Knarsdale (013878)",
      "region": "England",
      "county": "Cumbria",
      "location": {
        "lat": 54.871077,
        "long": -2.52275
      },
      "value": 7
    },
    {
      "rank": 57,
      "station": "021228",
      "stationName": "Burnhope Reservoir (021228)",
      "region": "England",
      "county": "Cumbria",
      "location": {
        "lat": 54.747962,
        "long": -2.235316
      },
      "value": 7
    },
    {
      "rank": 58,
      "station": "032822",
      "stationName": "Harpington Hill (032822)",
      "region": "England",
      "county": "Durham",
      "location": {
        "lat": 54.633845,
        "long": -1.480219
      },
      "value": 7
    },
    {
      "rank": 59,
      "station": "035103",
      "stationName": "Staithes (035103)",
      "region": "England",
      "county": "Unknown",
      "location": {
        "lat": 54.541989,
        "long": -0.815179
      },
      "value": 7
    },
    {
      "rank": 60,
      "station": "047281",
      "stationName": "Snaizeholme Tow Hill (047281)",
      "region": "England",
      "county": "Cumbria",
      "location": {
        "lat": 54.275194,
        "long": -2.263325
      },
      "value": 7
    },
    {
      "rank": 61,
      "station": "052287",
      "stationName": "Richmond Green Howard Road (052287)",
      "region": "England",
      "county": "Lancashire",
      "location": {
        "lat": 54.409101,
        "long": -1.735735
      },
      "value": 7
    },
    {
      "rank": 62,
      "station": "054371",
      "stationName": "East Cowton (054371)",
      "region": "England",
      "county": "Lancashire",
      "location": {
        "lat": 54.419203,
        "long": -1.515299
      },
      "value": 7
    },
    {
      "rank": 63,
      "station": "073422",
      "stationName": "Malham Tarn (073422)",
      "region": "England",
      "county": "Cumbria",
      "location": {
        "lat": 54.100116,
        "long": -2.164345
      },
      "value": 7
    },
    {
      "rank": 64,
      "station": "074329",
      "stationName": "Embsay Reservoir (074329)",
      "region": "England",
      "county": "Lancashire",
      "location": {
        "lat": 53.986087,
        "long": -1.999194
      },
      "value": 7
    },
    {
      "rank": 65,
      "station": "077800",
      "stationName": "Great Wolden Edge (077800)",
      "region": "England",
      "county": "Lancashire",
      "location": {
        "lat": 53.636457,
        "long": -2.005248
      },
      "value": 7
    },
    {
      "rank": 66,
      "station": "078772",
      "stationName": "Brownhill Reservoir (078772)",
      "region": "England",
      "county": "Lancashire",
      "location": {
        "lat": 53.552738,
        "long": -1.824111
      },
      "value": 7
    },
    {
      "rank": 67,
      "station": "1793",
      "stationName": "Long Mynd (1793)",
      "region": "England",
      "county": "Powys",
      "location": {
        "lat": 52.518531,
        "long": -2.881966
      },
      "value": 7
    },
    {
      "rank": 68,
      "station": "3570",
      "stationName": "Cauldon Low (3570)",
      "region": "England",
      "county": "Derbyshire",
      "location": {
        "lat": 53.029694,
        "long": -1.914215
      },
      "value": 7
    },
    {
      "rank": 69,
      "station": "3576",
      "stationName": "Longcliffe (3576)",
      "region": "England",
      "county": "Derbyshire",
      "location": {
        "lat": 53.093957,
        "long": -1.658736
      },
      "value": 7
    },
    {
      "rank": 70,
      "station": "47160",
      "stationName": "Kilkhampton (47160)",
      "region": "England",
      "county": "Devon",
      "location": {
        "lat": 50.877791,
        "long": -4.488167
      },
      "value": 7
    },
    {
      "rank": 71,
      "station": "47161",
      "stationName": "Gunnislake (47161)",
      "region": "England",
      "county": "Cornwall",
      "location": {
        "lat": 50.516447,
        "long": -4.209541
      },
      "value": 7
    },
    {
      "rank": 72,
      "station": "47176",
      "stationName": "Langstone Moor (47176)",
      "region": "England",
      "county": "Devon",
      "location": {
        "lat": 50.584943,
        "long": -4.054524
      },
      "value": 7
    },
    {
      "rank": 73,
      "station": "48157",
      "stationName": "Heligan (48157)",
      "region": "England",
      "county": "Cornwall",
      "location": {
        "lat": 50.286686,
        "long": -4.810984
      },
      "value": 7
    },
    {
      "rank": 74,
      "station": "551440",
      "stationName": "Folly Gates (551440)",
      "region": "England",
      "county": "Cheshire",
      "location": {
        "lat": 53.276556,
        "long": -2.854006
      },
      "value": 7
    },
    {
      "rank": 75,
      "station": "559586",
      "stationName": "Greenfield (559586)",
      "region": "England",
      "county": "Lancashire",
      "location": {
        "lat": 53.534889,
        "long": -2.012778
      },
      "value": 7
    },
    {
      "rank": 76,
      "station": "559969",
      "stationName": "Denton (559969)",
      "region": "England",
      "county": "Cheshire",
      "location": {
        "lat": 53.459311,
        "long": -2.134747
      },
      "value": 7
    },
    {
      "rank": 77,
      "station": "571479",
      "stationName": "Far Gearstone (571479)",
      "region": "England",
      "county": "Cumbria",
      "location": {
        "lat": 54.217501,
        "long": -2.3335
      },
      "value": 7
    },
    {
      "rank": 78,
      "station": "573674",
      "stationName": "Footholme (573674)",
      "region": "England",
      "county": "Lancashire",
      "location": {
        "lat": 53.971437,
        "long": -2.529714
      },
      "value": 7
    },
    {
      "rank": 79,
      "station": "575335",
      "stationName": "Mearley Hall (575335)",
      "region": "England",
      "county": "Lancashire",
      "location": {
        "lat": 53.862447,
        "long": -2.348914
      },
      "value": 7
    },
    {
      "rank": 80,
      "station": "577271",
      "stationName": "Red Br (577271)",
      "region": "England",
      "county": "Lancashire",
      "location": {
        "lat": 53.783353,
        "long": -2.991754
      },
      "value": 7
    },
    {
      "rank": 81,
      "station": "577417",
      "stationName": "Fleetwood (577417)",
      "region": "England",
      "county": "Lancashire",
      "location": {
        "lat": 53.908061,
        "long": -3.019063
      },
      "value": 7
    },
    {
      "rank": 82,
      "station": "578009",
      "stationName": "Barnacre Reservoir (578009)",
      "region": "England",
      "county": "Lancashire",
      "location": {
        "lat": 53.927308,
        "long": -2.719516
      },
      "value": 7
    },
    {
      "rank": 83,
      "station": "579623",
      "stationName": "Hazelrigg (579623)",
      "region": "England",
      "county": "Cumbria",
      "location": {
        "lat": 54.01325,
        "long": -2.77441
      },
      "value": 7
    },
    {
      "rank": 84,
      "station": "582191",
      "stationName": "Ingleton High Leys (582191)",
      "region": "England",
      "county": "Cumbria",
      "location": {
        "lat": 54.144383,
        "long": -2.433946
      },
      "value": 7
    },
    {
      "rank": 85,
      "station": "582837",
      "stationName": "Turnerford (582837)",
      "region": "England",
      "county": "Cumbria",
      "location": {
        "lat": 54.090487,
        "long": -2.425739
      },
      "value": 7
    },
    {
      "rank": 86,
      "station": "582970",
      "stationName": "Wennington Clintsfield (582970)",
      "region": "England",
      "county": "Cumbria",
      "location": {
        "lat": 54.122231,
        "long": -2.572947
      },
      "value": 7
    },
    {
      "rank": 87,
      "station": "588006",
      "stationName": "Coniston Coppermines (588006)",
      "region": "England",
      "county": "Cumbria",
      "location": {
        "lat": 54.378286,
        "long": -3.103039
      },
      "value": 7
    },
    {
      "rank": 88,
      "station": "591642",
      "stationName": "Ennerdale (591642)",
      "region": "England",
      "county": "Cumbria",
      "location": {
        "lat": 54.525099,
        "long": -3.417569
      },
      "value": 7
    },
    {
      "rank": 89,
      "station": "592464",
      "stationName": "Honister (592464)",
      "region": "England",
      "county": "Cumbria",
      "location": {
        "lat": 54.511299,
        "long": -3.197753
      },
      "value": 7
    },
    {
      "rank": 90,
      "station": "592850",
      "stationName": "Dale Head Hall (592850)",
      "region": "England",
      "county": "Cumbria",
      "location": {
        "lat": 54.548496,
        "long": -3.06434
      },
      "value": 7
    },
    {
      "rank": 91,
      "station": "598145",
      "stationName": "Barras (598145)",
      "region": "England",
      "county": "Cumbria",
      "location": {
        "lat": 54.504409,
        "long": -2.241634
      },
      "value": 7
    },
    {
      "rank": 92,
      "station": "600295",
      "stationName": "Glenridding Greenside Mines (600295)",
      "region": "England",
      "county": "Cumbria",
      "location": {
        "lat": 54.548278,
        "long": -2.983943
      },
      "value": 7
    },
    {
      "rank": 93,
      "station": "600986",
      "stationName": "Wet Sleddale (600986)",
      "region": "England",
      "county": "Cumbria",
      "location": {
        "lat": 54.497284,
        "long": -2.690895
      },
      "value": 7
    },
    {
      "rank": 94,
      "station": "E2331",
      "stationName": "Dingley (E2331)",
      "region": "England",
      "county": "Leicestershire",
      "location": {
        "lat": 52.473204,
        "long": -0.862668
      },
      "value": 7
    },
    {
      "rank": 95,
      "station": "E5723",
      "stationName": "Metoff Coningsby (E5723)",
      "region": "England",
      "county": "Lincolnshire",
      "location": {
        "lat": 53.093909,
        "long": -0.172837
      },
      "value": 7
    },
    {
      "rank": 96,
      "station": "E5727",
      "stationName": "Metoff Holbeach (E5727)",
      "region": "England",
      "county": "Lincolnshire",
      "location": {
        "lat": 52.872934,
        "long": 0.138821
      },
      "value": 7
    },
    {
      "rank": 97,
      "station": "E82040",
      "stationName": "Colaton Raleigh Dotton Water Works (E82040)",
      "region": "England",
      "county": "Devon",
      "location": {
        "lat": 50.686641,
        "long": -3.300157
      },
      "value": 7
    },
    {
      "rank": 98,
      "station": "E99682",
      "stationName": "Dunkeswell Aerodrome Met Office (E99682)",
      "region": "England",
      "county": "Devon",
      "location": {
        "lat": 50.859966,
        "long": -3.239613
      },
      "value": 7
    },
    {
      "rank": 99,
      "station": "013045",
      "stationName": "Garrigill Noonstones Hill (013045)",
      "region": "England",
      "county": "Cumbria",
      "location": {
        "lat": 54.742208,
        "long": -2.378185
      },
      "value": 6
    },
    {
      "rank": 100,
      "station": "014555",
      "stationName": "Haltwhistle (014555)",
      "region": "England",
      "county": "Cumbria",
      "location": {
        "lat": 54.97002,
        "long": -2.500603
      },
      "value": 6
    }
  ]
}