{
  "metric": "total_rainfall",
  "period": "7d",
  "unit": "mm",
  "generated_at": "2025-10-01T08:26:02.425Z",
  "rankings": [
    {
      "rank": 1,
      "station": "592158",
      "stationName": "Egremont Ivy Hill (592158)",
      "region": "England",
      "county": "Cumbria",
      "location": {
        "lat": 54.498215,
        "long": -3.557159
      },
      "value": 42.6
    },
    {
      "rank": 2,
      "station": "591642",
      "stationName": "Ennerdale (591642)",
      "region": "England",
      "county": "Cumbria",
      "location": {
        "lat": 54.525099,
        "long": -3.417569
      },
      "value": 35.9
    },
    {
      "rank": 3,
      "station": "588006",
      "stationName": "Coniston Coppermines (588006)",
      "region": "England",
      "county": "Cumbria",
      "location": {
        "lat": 54.378286,
        "long": -3.103039
      },
      "value": 35.5
    },
    {
      "rank": 4,
      "station": "591419",
      "stationName": "Calder Hall (591419)",
      "region": "England",
      "county": "Cumbria",
      "location": {
        "lat": 54.427181,
        "long": -3.488178
      },
      "value": 34.2
    },
    {
      "rank": 5,
      "station": "E14930",
      "stationName": "Chale (E14930)",
      "region": "England",
      "county": "Isle of Wight",
      "location": {
        "lat": 50.623497,
        "long": -1.307947
      },
      "value": 24.6
    },
    {
      "rank": 6,
      "station": "077066",
      "stationName": "Gorpley Reservoir (077066)",
      "region": "England",
      "county": "Lancashire",
      "location": {
        "lat": 53.70469,
        "long": -2.135531
      },
      "value": 24.4
    },
    {
      "rank": 7,
      "station": "079621",
      "stationName": "Heckmondwike Bottoms (079621)",
      "region": "England",
      "county": "Lancashire",
      "location": {
        "lat": 53.698015,
        "long": -1.667505
      },
      "value": 22.5
    },
    {
      "rank": 8,
      "station": "559586",
      "stationName": "Greenfield (559586)",
      "region": "England",
      "county": "Lancashire",
      "location": {
        "lat": 53.534889,
        "long": -2.012778
      },
      "value": 22
    },
    {
      "rank": 9,
      "station": "078772",
      "stationName": "Brownhill Reservoir (078772)",
      "region": "England",
      "county": "Lancashire",
      "location": {
        "lat": 53.552738,
        "long": -1.824111
      },
      "value": 21
    },
    {
      "rank": 10,
      "station": "075497",
      "stationName": "Bradford Chellow Heights (075497)",
      "region": "England",
      "county": "Lancashire",
      "location": {
        "lat": 53.815189,
        "long": -1.823015
      },
      "value": 20.6
    },
    {
      "rank": 11,
      "station": "591878",
      "stationName": "Summergrove (591878)",
      "region": "England",
      "county": "Cumbria",
      "location": {
        "lat": 54.529816,
        "long": -3.545999
      },
      "value": 20.4
    },
    {
      "rank": 12,
      "station": "077952",
      "stationName": "Halifax Ogden Reservoir (077952)",
      "region": "England",
      "county": "Lancashire",
      "location": {
        "lat": 53.772138,
        "long": -1.90361
      },
      "value": 20.4
    },
    {
      "rank": 13,
      "station": "076204",
      "stationName": "Farnley Hall (076204)",
      "region": "England",
      "county": "Lancashire",
      "location": {
        "lat": 53.787777,
        "long": -1.627332
      },
      "value": 20
    },
    {
      "rank": 14,
      "station": "563170",
      "stationName": "Oldham (563170)",
      "region": "England",
      "county": "Lancashire",
      "location": {
        "lat": 53.53478,
        "long": -2.162144
      },
      "value": 19.8
    },
    {
      "rank": 15,
      "station": "Egerton1",
      "stationName": "Egerton Dimple Road (Egerton1)",
      "region": "England",
      "county": "Lancashire",
      "location": {
        "lat": 53.636515,
        "long": -2.448375
      },
      "value": 19.4
    },
    {
      "rank": 16,
      "station": "077800",
      "stationName": "Great Wolden Edge (077800)",
      "region": "England",
      "county": "Lancashire",
      "location": {
        "lat": 53.636457,
        "long": -2.005248
      },
      "value": 19.4
    },
    {
      "rank": 17,
      "station": "062046",
      "stationName": "Grimwith Reservoir (062046)",
      "region": "England",
      "county": "Lancashire",
      "location": {
        "lat": 54.071438,
        "long": -1.913617
      },
      "value": 19.4
    },
    {
      "rank": 18,
      "station": "588705",
      "stationName": "Poaka Beck (588705)",
      "region": "England",
      "county": "Cumbria",
      "location": {
        "lat": 54.190769,
        "long": -3.163942
      },
      "value": 19
    },
    {
      "rank": 19,
      "station": "586898",
      "stationName": "Brathay Hall (586898)",
      "region": "England",
      "county": "Cumbria",
      "location": {
        "lat": 54.420696,
        "long": -2.979342
      },
      "value": 19
    },
    {
      "rank": 20,
      "station": "561299",
      "stationName": "Blackstone Edge (561299)",
      "region": "England",
      "county": "Lancashire",
      "location": {
        "lat": 53.65712,
        "long": -2.049131
      },
      "value": 19
    },
    {
      "rank": 21,
      "station": "075233",
      "stationName": "Thornton Moor Reservoir (075233)",
      "region": "England",
      "county": "Lancashire",
      "location": {
        "lat": 53.79732,
        "long": -1.924807
      },
      "value": 18.9
    },
    {
      "rank": 22,
      "station": "600140",
      "stationName": "Brotherswater (600140)",
      "region": "England",
      "county": "Cumbria",
      "location": {
        "lat": 54.500172,
        "long": -2.930285
      },
      "value": 18.9
    },
    {
      "rank": 23,
      "station": "562992",
      "stationName": "Heaton Park (562992)",
      "region": "England",
      "county": "Lancashire",
      "location": {
        "lat": 53.535499,
        "long": -2.263235
      },
      "value": 18.4
    },
    {
      "rank": 24,
      "station": "588886",
      "stationName": "Palace Nook (588886)",
      "region": "England",
      "county": "Cumbria",
      "location": {
        "lat": 54.136092,
        "long": -3.238939
      },
      "value": 18.2
    },
    {
      "rank": 25,
      "station": "559969",
      "stationName": "Denton (559969)",
      "region": "England",
      "county": "Cheshire",
      "location": {
        "lat": 53.459311,
        "long": -2.134747
      },
      "value": 18.1
    },
    {
      "rank": 26,
      "station": "558975",
      "stationName": "Padfield Reservoir (558975)",
      "region": "England",
      "county": "Derbyshire",
      "location": {
        "lat": 53.463871,
        "long": -1.947989
      },
      "value": 17.8
    },
    {
      "rank": 27,
      "station": "578009",
      "stationName": "Barnacre Reservoir (578009)",
      "region": "England",
      "county": "Lancashire",
      "location": {
        "lat": 53.927308,
        "long": -2.719516
      },
      "value": 17.7
    },
    {
      "rank": 28,
      "station": "560631",
      "stationName": "Bacup (560631)",
      "region": "England",
      "county": "Lancashire",
      "location": {
        "lat": 53.718989,
        "long": -2.194675
      },
      "value": 17.6
    },
    {
      "rank": 29,
      "station": "073422",
      "stationName": "Malham Tarn (073422)",
      "region": "England",
      "county": "Cumbria",
      "location": {
        "lat": 54.100116,
        "long": -2.164345
      },
      "value": 17.3
    },
    {
      "rank": 30,
      "station": "558844",
      "stationName": "Woodhead (558844)",
      "region": "England",
      "county": "Derbyshire",
      "location": {
        "lat": 53.49079,
        "long": -1.883147
      },
      "value": 17.2
    },
    {
      "rank": 31,
      "station": "078530",
      "stationName": "Marsden Butterley Reservoir (078530)",
      "region": "England",
      "county": "Lancashire",
      "location": {
        "lat": 53.592394,
        "long": -1.929702
      },
      "value": 17
    },
    {
      "rank": 32,
      "station": "573674",
      "stationName": "Footholme (573674)",
      "region": "England",
      "county": "Lancashire",
      "location": {
        "lat": 53.971437,
        "long": -2.529714
      },
      "value": 17
    },
    {
      "rank": 33,
      "station": "585122",
      "stationName": "Dubbs Reservoir (585122)",
      "region": "England",
      "county": "Cumbria",
      "location": {
        "lat": 54.406987,
        "long": -2.892739
      },
      "value": 16.5
    },
    {
      "rank": 34,
      "station": "558016",
      "stationName": "Cat And Fiddle (558016)",
      "region": "England",
      "county": "Derbyshire",
      "location": {
        "lat": 53.24456,
        "long": -1.997705
      },
      "value": 16.4
    },
    {
      "rank": 35,
      "station": "587552",
      "stationName": "Tower Wood (587552)",
      "region": "England",
      "county": "Cumbria",
      "location": {
        "lat": 54.313112,
        "long": -2.946042
      },
      "value": 16.3
    },
    {
      "rank": 36,
      "station": "584772",
      "stationName": "Fisher Tarn (584772)",
      "region": "England",
      "county": "Cumbria",
      "location": {
        "lat": 54.328305,
        "long": -2.694209
      },
      "value": 16.1
    },
    {
      "rank": 37,
      "station": "558491",
      "stationName": "Hayfield New Mills (558491)",
      "region": "England",
      "county": "Derbyshire",
      "location": {
        "lat": 53.38925,
        "long": -1.919511
      },
      "value": 15.9
    },
    {
      "rank": 38,
      "station": "E5721",
      "stationName": "Metoff Waddington (E5721)",
      "region": "England",
      "county": "Lincolnshire",
      "location": {
        "lat": 53.175194,
        "long": -0.524002
      },
      "value": 15.7
    },
    {
      "rank": 39,
      "station": "564769",
      "stationName": "Prestbury (564769)",
      "region": "England",
      "county": "Cheshire",
      "location": {
        "lat": 53.300189,
        "long": -2.155251
      },
      "value": 15.6
    },
    {
      "rank": 40,
      "station": "076413",
      "stationName": "Headingley (076413)",
      "region": "England",
      "county": "Lancashire",
      "location": {
        "lat": 53.83349,
        "long": -1.58894
      },
      "value": 15.6
    },
    {
      "rank": 41,
      "station": "3380",
      "stationName": "Derwent Reservoir (3380)",
      "region": "England",
      "county": "Derbyshire",
      "location": {
        "lat": 53.405172,
        "long": -1.738982
      },
      "value": 15.4
    },
    {
      "rank": 42,
      "station": "074329",
      "stationName": "Embsay Reservoir (074329)",
      "region": "England",
      "county": "Lancashire",
      "location": {
        "lat": 53.986087,
        "long": -1.999194
      },
      "value": 15.2
    },
    {
      "rank": 43,
      "station": "585512",
      "stationName": "Watchgate (585512)",
      "region": "England",
      "county": "Cumbria",
      "location": {
        "lat": 54.37577,
        "long": -2.72272
      },
      "value": 15.1
    },
    {
      "rank": 44,
      "station": "47170",
      "stationName": "Stoke Climsland (47170)",
      "region": "England",
      "county": "Cornwall",
      "location": {
        "lat": 50.546683,
        "long": -4.319646
      },
      "value": 14.9
    },
    {
      "rank": 45,
      "station": "586056",
      "stationName": "Levens Bridge End (586056)",
      "region": "England",
      "county": "Cumbria",
      "location": {
        "lat": 54.262864,
        "long": -2.811323
      },
      "value": 14.8
    },
    {
      "rank": 46,
      "station": "561613",
      "stationName": "Cowm Res (561613)",
      "region": "England",
      "county": "Lancashire",
      "location": {
        "lat": 53.663285,
        "long": -2.180798
      },
      "value": 14.8
    },
    {
      "rank": 47,
      "station": "564595",
      "stationName": "Langley Bottom (564595)",
      "region": "England",
      "county": "Cheshire",
      "location": {
        "lat": 53.240041,
        "long": -2.077118
      },
      "value": 14.7
    },
    {
      "rank": 48,
      "station": "49171",
      "stationName": "Trebrownbridge Blackadon (49171)",
      "region": "England",
      "county": "Cornwall",
      "location": {
        "lat": 50.419841,
        "long": -4.409173
      },
      "value": 14.3
    },
    {
      "rank": 49,
      "station": "577417",
      "stationName": "Fleetwood (577417)",
      "region": "England",
      "county": "Lancashire",
      "location": {
        "lat": 53.908061,
        "long": -3.019063
      },
      "value": 14.3
    },
    {
      "rank": 50,
      "station": "47176",
      "stationName": "Langstone Moor (47176)",
      "region": "England",
      "county": "Devon",
      "location": {
        "lat": 50.584943,
        "long": -4.054524
      },
      "value": 14.2
    },
    {
      "rank": 51,
      "station": "575335",
      "stationName": "Mearley Hall (575335)",
      "region": "England",
      "county": "Lancashire",
      "location": {
        "lat": 53.862447,
        "long": -2.348914
      },
      "value": 14.2
    },
    {
      "rank": 52,
      "station": "570788",
      "stationName": "Common Bank (570788)",
      "region": "England",
      "county": "Lancashire",
      "location": {
        "lat": 53.653543,
        "long": -2.654324
      },
      "value": 14.2
    },
    {
      "rank": 53,
      "station": "585160",
      "stationName": "Kentmere Hallowbank (585160)",
      "region": "England",
      "county": "Cumbria",
      "location": {
        "lat": 54.43892,
        "long": -2.825593
      },
      "value": 14
    },
    {
      "rank": 54,
      "station": "579623",
      "stationName": "Hazelrigg (579623)",
      "region": "England",
      "county": "Cumbria",
      "location": {
        "lat": 54.01325,
        "long": -2.77441
      },
      "value": 14
    },
    {
      "rank": 55,
      "station": "E5722",
      "stationName": "Metoff Cranwell (E5722)",
      "region": "England",
      "county": "Lincolnshire",
      "location": {
        "lat": 53.031102,
        "long": -0.503575
      },
      "value": 13.9
    },
    {
      "rank": 56,
      "station": "E7190",
      "stationName": "Toft Newton Reservoir (E7190)",
      "region": "England",
      "county": "Lincolnshire",
      "location": {
        "lat": 53.37292,
        "long": -0.449533
      },
      "value": 13.8
    },
    {
      "rank": 57,
      "station": "562656",
      "stationName": "Ringley (562656)",
      "region": "England",
      "county": "Lancashire",
      "location": {
        "lat": 53.539768,
        "long": -2.35078
      },
      "value": 13.8
    },
    {
      "rank": 58,
      "station": "063518",
      "stationName": "Eccup Reservoir (063518)",
      "region": "England",
      "county": "Lancashire",
      "location": {
        "lat": 53.876425,
        "long": -1.532241
      },
      "value": 13.8
    },
    {
      "rank": 59,
      "station": "598691",
      "stationName": "Brackenber (598691)",
      "region": "England",
      "county": "Cumbria",
      "location": {
        "lat": 54.569482,
        "long": -2.432265
      },
      "value": 13.7
    },
    {
      "rank": 60,
      "station": "600295",
      "stationName": "Glenridding Greenside Mines (600295)",
      "region": "England",
      "county": "Cumbria",
      "location": {
        "lat": 54.548278,
        "long": -2.983943
      },
      "value": 13.7
    },
    {
      "rank": 61,
      "station": "058461",
      "stationName": "Scargill Reservoir (058461)",
      "region": "England",
      "county": "Lancashire",
      "location": {
        "lat": 53.979278,
        "long": -1.646973
      },
      "value": 13.6
    },
    {
      "rank": 62,
      "station": "567866",
      "stationName": "Fazakerley (567866)",
      "region": "England",
      "county": "Cheshire",
      "location": {
        "lat": 53.460365,
        "long": -2.916431
      },
      "value": 13.6
    },
    {
      "rank": 63,
      "station": "47164",
      "stationName": "Dousland (47164)",
      "region": "England",
      "county": "Devon",
      "location": {
        "lat": 50.501188,
        "long": -4.060758
      },
      "value": 13.4
    },
    {
      "rank": 64,
      "station": "074924",
      "stationName": "Lower Laithe Reservoir (074924)",
      "region": "England",
      "county": "Lancashire",
      "location": {
        "lat": 53.829697,
        "long": -1.976406
      },
      "value": 13.4
    },
    {
      "rank": 65,
      "station": "3572",
      "stationName": "Chapel Reservoir (3572)",
      "region": "England",
      "county": "Derbyshire",
      "location": {
        "lat": 53.311933,
        "long": -1.898644
      },
      "value": 13.4
    },
    {
      "rank": 66,
      "station": "242534TP",
      "stationName": "Ware,broadmeads (242534TP)",
      "region": "England",
      "county": "Hertfordshire",
      "location": {
        "lat": 51.807828,
        "long": -0.03963
      },
      "value": 13.2
    },
    {
      "rank": 67,
      "station": "46160",
      "stationName": "Whitebarrow (46160)",
      "region": "England",
      "county": "Devon",
      "location": {
        "lat": 50.473478,
        "long": -3.89184
      },
      "value": 13.1
    },
    {
      "rank": 68,
      "station": "576925",
      "stationName": "Clifton Marsh (576925)",
      "region": "England",
      "county": "Lancashire",
      "location": {
        "lat": 53.748659,
        "long": -2.825643
      },
      "value": 13.1
    },
    {
      "rank": 69,
      "station": "080282",
      "stationName": "Wakefield (080282)",
      "region": "England",
      "county": "Yorkshire",
      "location": {
        "lat": 53.679365,
        "long": -1.478411
      },
      "value": 12.8
    },
    {
      "rank": 70,
      "station": "49151",
      "stationName": "St Cleer (49151)",
      "region": "England",
      "county": "Cornwall",
      "location": {
        "lat": 50.480775,
        "long": -4.463019
      },
      "value": 12.8
    },
    {
      "rank": 71,
      "station": "077336",
      "stationName": "Gorple Reservoir (077336)",
      "region": "England",
      "county": "Lancashire",
      "location": {
        "lat": 53.77754,
        "long": -2.084173
      },
      "value": 12.8
    },
    {
      "rank": 72,
      "station": "562417",
      "stationName": "Sweetloves (562417)",
      "region": "England",
      "county": "Lancashire",
      "location": {
        "lat": 53.60958,
        "long": -2.440532
      },
      "value": 12.8
    },
    {
      "rank": 73,
      "station": "287946TP",
      "stationName": "Mitcham (287946TP)",
      "region": "England",
      "county": "Surrey",
      "location": {
        "lat": 51.415955,
        "long": -0.162865
      },
      "value": 12.7
    },
    {
      "rank": 74,
      "station": "582837",
      "stationName": "Turnerford (582837)",
      "region": "England",
      "county": "Cumbria",
      "location": {
        "lat": 54.090487,
        "long": -2.425739
      },
      "value": 12.7
    },
    {
      "rank": 75,
      "station": "571479",
      "stationName": "Far Gearstone (571479)",
      "region": "England",
      "county": "Cumbria",
      "location": {
        "lat": 54.217501,
        "long": -2.3335
      },
      "value": 12.7
    },
    {
      "rank": 76,
      "station": "061431",
      "stationName": "Littondale (061431)",
      "region": "England",
      "county": "Cumbria",
      "location": {
        "lat": 54.163943,
        "long": -2.152346
      },
      "value": 12.6
    },
    {
      "rank": 77,
      "station": "564154",
      "stationName": "Bedford (564154)",
      "region": "England",
      "county": "Cheshire",
      "location": {
        "lat": 53.497891,
        "long": -2.499671
      },
      "value": 12.6
    },
    {
      "rank": 78,
      "station": "570099",
      "stationName": "Billinge Hill (570099)",
      "region": "England",
      "county": "Lancashire",
      "location": {
        "lat": 53.511139,
        "long": -2.721493
      },
      "value": 12.6
    },
    {
      "rank": 79,
      "station": "077836",
      "stationName": "Ringstone Reservoir (077836)",
      "region": "England",
      "county": "Lancashire",
      "location": {
        "lat": 53.657107,
        "long": -1.925056
      },
      "value": 12.6
    },
    {
      "rank": 80,
      "station": "074385",
      "stationName": "Snaygill (074385)",
      "region": "England",
      "county": "Lancashire",
      "location": {
        "lat": 53.947438,
        "long": -2.020525
      },
      "value": 12.5
    },
    {
      "rank": 81,
      "station": "555207",
      "stationName": "Mow Cop (555207)",
      "region": "England",
      "county": "Cheshire",
      "location": {
        "lat": 53.114913,
        "long": -2.221812
      },
      "value": 12.4
    },
    {
      "rank": 82,
      "station": "576578",
      "stationName": "Haighton Reservoir (576578)",
      "region": "England",
      "county": "Lancashire",
      "location": {
        "lat": 53.811772,
        "long": -2.647675
      },
      "value": 12.1
    },
    {
      "rank": 83,
      "station": "E1613",
      "stationName": "Tealby (E1613)",
      "region": "England",
      "county": "Lincolnshire",
      "location": {
        "lat": 53.397417,
        "long": -0.269659
      },
      "value": 12
    },
    {
      "rank": 84,
      "station": "E45881",
      "stationName": "Canwick (E45881)",
      "region": "England",
      "county": "Lincolnshire",
      "location": {
        "lat": 53.219937,
        "long": -0.507486
      },
      "value": 11.8
    },
    {
      "rank": 85,
      "station": "074108",
      "stationName": "Lothersdale Proctor Heights (074108)",
      "region": "England",
      "county": "Lancashire",
      "location": {
        "lat": 53.911448,
        "long": -2.098144
      },
      "value": 11.8
    },
    {
      "rank": 86,
      "station": "3602",
      "stationName": "Waltham On The Wolds (3602)",
      "region": "England",
      "county": "Leicestershire",
      "location": {
        "lat": 52.813347,
        "long": -0.803365
      },
      "value": 11.6
    },
    {
      "rank": 87,
      "station": "EdgeH1",
      "stationName": "Edgehill (EdgeH1)",
      "region": "England",
      "county": "Lancashire",
      "location": {
        "lat": 53.560463,
        "long": -2.873303
      },
      "value": 11.6
    },
    {
      "rank": 88,
      "station": "049902",
      "stationName": "Lumley Moor Reservoir (049902)",
      "region": "England",
      "county": "Lancashire",
      "location": {
        "lat": 54.130296,
        "long": -1.656404
      },
      "value": 11.6
    },
    {
      "rank": 89,
      "station": "571894",
      "stationName": "Stainforth (571894)",
      "region": "England",
      "county": "Cumbria",
      "location": {
        "lat": 54.103514,
        "long": -2.27294
      },
      "value": 11.6
    },
    {
      "rank": 90,
      "station": "605324",
      "stationName": "Force Crag Mine (605324)",
      "region": "England",
      "county": "Cumbria",
      "location": {
        "lat": 54.583702,
        "long": -3.237013
      },
      "value": 11.3
    },
    {
      "rank": 91,
      "station": "592860",
      "stationName": "Thirlmere St John&#39;s Beck (592860)",
      "region": "England",
      "county": "Cumbria",
      "location": {
        "lat": 54.56648,
        "long": -3.063261
      },
      "value": 11.2
    },
    {
      "rank": 92,
      "station": "E1645",
      "stationName": "Goxhill (E1645)",
      "region": "England",
      "county": "Lincolnshire",
      "location": {
        "lat": 53.664551,
        "long": -0.343494
      },
      "value": 11.1
    },
    {
      "rank": 93,
      "station": "600986",
      "stationName": "Wet Sleddale (600986)",
      "region": "England",
      "county": "Cumbria",
      "location": {
        "lat": 54.497284,
        "long": -2.690895
      },
      "value": 11.1
    },
    {
      "rank": 94,
      "station": "569323",
      "stationName": "Crossens (569323)",
      "region": "England",
      "county": "Lancashire",
      "location": {
        "lat": 53.678587,
        "long": -2.942358
      },
      "value": 11
    },
    {
      "rank": 95,
      "station": "085322",
      "stationName": "Cannon Hall (085322)",
      "region": "England",
      "county": "Lancashire",
      "location": {
        "lat": 53.571934,
        "long": -1.588459
      },
      "value": 11
    },
    {
      "rank": 96,
      "station": "594202",
      "stationName": "Cornhow (594202)",
      "region": "England",
      "county": "Cumbria",
      "location": {
        "lat": 54.58826,
        "long": -3.316076
      },
      "value": 11
    },
    {
      "rank": 97,
      "station": "000008",
      "stationName": "Harley (000008)",
      "region": "England",
      "county": "Derbyshire",
      "location": {
        "lat": 53.480556,
        "long": -1.441674
      },
      "value": 10.8
    },
    {
      "rank": 98,
      "station": "573342",
      "stationName": "Stocks Res (573342)",
      "region": "England",
      "county": "Lancashire",
      "location": {
        "lat": 53.986218,
        "long": -2.429249
      },
      "value": 10.8
    },
    {
      "rank": 99,
      "station": "052287",
      "stationName": "Richmond Green Howard Road (052287)",
      "region": "England",
      "county": "Lancashire",
      "location": {
        "lat": 54.409101,
        "long": -1.735735
      },
      "value": 10.7
    },
    {
      "rank": 100,
      "station": "3323",
      "stationName": "Ashbourne (3323)",
      "region": "England",
      "county": "Derbyshire",
      "location": {
        "lat": 53.025808,
        "long": -1.723384
      },
      "value": 10.7
    }
  ]
}